timestamp,time_s,mission_id,mission_phase,lat,lon,alt_m,speed_ms,gps_satellites,hdop,roll_deg,pitch_deg,yaw_deg,acc_x_g,acc_y_g,acc_z_g,gyro_x_dps,gyro_y_dps,gyro_z_dps,battery_pct,voltage_v,current_a,motor_temp_c,rssi_dbm,anomaly,anomaly_type
2024-03-15 10:00:00,0,0,takeoff,40.418825,-3.703895,-0.33,10.444,12,2.38,0.918,6.175,359.928,-0.0798,0.3757,0.9843,-0.354,-3.317,1.539,98.04,21.806,16.612,65.21,-63.4,0,normal
2024-03-15 10:00:01,1,0,takeoff,40.418792,-3.70378,0.31,8.412,12,1.24,1.555,3.117,1.184,0.0696,0.3819,1.0233,-0.421,-0.408,1.172,98.02,21.869,14.643,60.99,-72.0,0,normal
2024-03-15 10:00:02,2,0,takeoff,40.418828,-3.703695,0.72,11.956,11,1.41,1.131,4.656,2.432,-0.0639,-0.1392,1.0157,-1.837,0.714,1.647,98.01,21.812,17.851,67.0,-74.9,0,normal
2024-03-15 10:00:03,3,0,takeoff,40.418867,-3.703517,1.34,7.92,12,2.25,-1.532,4.922,4.073,-0.6569,-0.4663,0.9996,-0.052,-0.016,1.173,97.87,21.799,14.325,60.68,-65.1,0,normal
2024-03-15 10:00:04,4,0,takeoff,40.418773,-3.703522,1.94,6.007,13,1.4,0.877,4.952,4.426,-0.107,0.339,1.0029,1.248,-0.243,0.497,97.9,21.799,12.985,58.37,-68.2,0,normal
2024-03-15 10:00:05,5,0,takeoff,40.418764,-3.703554,2.75,6.415,11,1.32,-0.06,5.081,5.577,0.3303,0.3532,0.9998,0.582,-0.157,1.518,98.07,21.792,12.979,58.44,-62.0,0,normal
2024-03-15 10:00:06,6,0,takeoff,40.418844,-3.703401,2.9,4.829,12,1.34,1.346,5.467,7.818,0.0879,-0.543,1.0097,0.953,0.022,1.596,98.05,21.824,11.499,55.05,-64.2,0,normal
2024-03-15 10:00:07,7,0,takeoff,40.41879,-3.703441,3.02,9.558,11,1.57,3.026,4.77,8.169,0.1169,-0.1838,0.984,0.378,-0.303,1.481,98.04,21.806,15.364,62.81,-65.5,0,normal
2024-03-15 10:00:08,8,0,takeoff,40.418714,-3.703248,4.34,7.756,11,1.76,2.474,4.378,8.968,-0.202,0.2814,1.0173,0.396,-0.135,1.798,97.94,21.776,14.757,61.39,-68.7,0,normal
2024-03-15 10:00:09,9,0,takeoff,40.418748,-3.703266,4.25,3.386,11,1.32,3.742,4.272,10.557,0.1137,-0.1138,1.0071,0.146,-0.5,0.869,98.07,21.784,10.61,54.64,-65.2,0,normal
2024-03-15 10:00:10,10,0,takeoff,40.418679,-3.703187,4.98,10.24,13,1.5,3.028,3.994,11.835,-0.0026,0.0725,0.9947,-1.351,0.419,1.147,97.96,21.81,16.427,64.98,-68.4,0,normal
2024-03-15 10:00:11,11,0,takeoff,40.418658,-3.703056,5.63,2.676,11,1.74,1.31,5.311,13.977,-0.4973,-0.0762,0.9902,-2.33,0.695,1.246,98.13,21.877,9.91,53.5,-67.0,0,normal
2024-03-15 10:00:12,12,0,takeoff,40.418672,-3.703128,6.06,6.773,12,1.27,0.09,3.788,14.862,0.1798,-0.392,1.0168,0.537,-0.773,1.148,97.92,21.864,13.505,58.84,-68.2,0,normal
2024-03-15 10:00:13,13,0,takeoff,40.41854,-3.703076,6.83,10.329,12,1.34,3.538,5.186,16.174,0.5604,0.3566,0.997,1.425,1.176,1.198,97.94,21.742,16.342,65.06,-66.3,0,normal
2024-03-15 10:00:14,14,0,takeoff,40.418523,-3.702978,7.14,9.989,12,2.28,3.343,4.255,17.21,-0.1637,0.3635,0.986,-1.984,-0.74,1.77,97.98,21.899,16.601,64.93,-67.9,0,normal
2024-03-15 10:00:15,15,0,takeoff,40.418554,-3.70284,7.24,2.964,11,1.29,2.663,3.605,18.473,-0.6713,-0.0619,0.9923,-0.338,0.097,1.471,98.08,21.852,10.33,53.94,-64.2,0,normal
2024-03-15 10:00:16,16,0,takeoff,40.418502,-3.702912,8.65,3.587,12,1.39,2.026,4.629,18.856,0.203,-0.1117,1.0154,-0.311,0.254,0.917,97.99,21.765,10.773,54.73,-65.8,0,normal
2024-03-15 10:00:17,17,0,takeoff,40.418537,-3.702924,8.56,7.392,11,1.41,3.413,3.16,20.301,0.782,-0.3827,0.9678,1.472,-1.149,1.011,98.0,21.802,14.081,60.57,-68.7,0,normal
2024-03-15 10:00:18,18,0,takeoff,40.418443,-3.702751,8.96,14.428,11,1.23,4.284,4.397,21.105,0.0873,0.3049,0.9929,1.36,1.028,1.455,97.95,21.72,19.378,69.34,-68.5,0,normal
2024-03-15 10:00:19,19,0,takeoff,40.418384,-3.702648,9.79,8.209,11,1.53,5.534,3.837,22.695,-0.4632,0.3862,1.0214,0.173,0.174,2.15,98.02,21.745,14.713,61.96,-71.0,0,normal
2024-03-15 10:00:20,20,0,takeoff,40.418491,-3.702564,10.07,2.298,12,1.31,5.173,2.887,24.342,-0.3781,-0.5357,0.9966,1.275,0.559,1.562,97.99,21.906,9.838,52.88,-73.2,0,normal
2024-03-15 10:00:21,21,0,takeoff,40.418369,-3.702597,10.62,8.37,11,1.34,7.083,3.866,25.267,0.2229,-0.3672,1.0055,-0.159,-0.629,1.141,97.91,21.772,14.562,60.47,-64.4,0,normal
2024-03-15 10:00:22,22,0,takeoff,40.418344,-3.702546,11.75,10.747,13,1.41,4.112,3.732,27.056,0.0116,0.1203,1.0217,-0.393,0.542,0.575,98.01,21.85,16.761,64.93,-68.3,0,normal
2024-03-15 10:00:23,23,0,takeoff,40.418229,-3.70242,11.42,6.368,13,1.31,6.607,4.187,27.029,-0.3365,0.381,1.0178,0.631,0.874,0.442,98.01,21.818,13.169,58.1,-70.9,0,normal
2024-03-15 10:00:24,24,0,takeoff,40.418231,-3.702524,11.9,0.888,11,1.28,5.796,3.834,29.05,0.3465,-0.0342,0.9912,0.623,0.274,1.27,98.23,21.866,8.889,50.29,-65.8,0,normal
2024-03-15 10:00:25,25,0,takeoff,40.41822,-3.702405,12.53,10.491,12,1.36,6.755,3.193,29.376,0.2448,-0.1608,0.9974,0.005,-1.919,1.41,97.93,21.828,16.731,65.54,-69.4,0,normal
2024-03-15 10:00:26,26,0,takeoff,40.418112,-3.702333,13.32,6.967,11,1.29,5.574,1.404,31.247,-0.3158,0.1511,1.0181,0.921,1.314,2.065,97.91,21.701,13.527,58.61,-67.4,0,normal
2024-03-15 10:00:27,27,0,takeoff,40.418141,-3.702277,13.05,4.177,11,1.31,7.553,4.805,32.77,-0.146,-0.1605,1.0188,-0.59,0.583,1.699,98.02,21.892,11.316,54.71,-71.1,0,normal
2024-03-15 10:00:28,28,0,takeoff,40.418045,-3.702284,13.41,7.599,13,1.22,6.783,0.775,33.493,-0.1621,-0.0698,0.9982,-0.843,-0.915,1.893,97.89,21.797,13.815,60.86,-65.2,0,normal
2024-03-15 10:00:29,29,0,takeoff,40.418011,-3.702218,14.32,5.472,12,1.57,5.769,2.946,35.076,-0.0177,0.3922,0.9989,-0.822,0.008,0.326,97.88,21.775,12.485,57.25,-66.9,0,normal
2024-03-15 10:00:30,30,0,takeoff,40.417945,-3.702306,14.51,1.775,12,1.31,6.717,2.243,35.52,0.5205,0.0345,1.0054,0.395,-0.834,0.849,97.85,21.817,9.307,52.08,-65.6,0,normal
2024-03-15 10:00:31,31,0,takeoff,40.418017,-3.702179,15.37,9.929,11,1.22,6.585,0.45,36.368,0.0081,-0.7349,1.0273,0.794,0.06,1.799,97.91,21.77,16.094,64.53,-68.5,0,normal
2024-03-15 10:00:32,32,0,takeoff,40.417871,-3.702089,16.15,14.17,12,1.51,7.592,1.309,38.679,-0.3564,0.0286,1.0214,0.434,0.287,2.015,97.91,21.817,19.633,70.73,-66.5,0,normal
2024-03-15 10:00:33,33,0,takeoff,40.417765,-3.702128,16.23,3.978,11,1.2,5.714,1.162,40.472,0.1494,0.3324,1.0139,-0.659,-0.074,0.398,97.86,21.788,11.087,55.03,-71.5,0,normal
2024-03-15 10:00:34,34,0,takeoff,40.417805,-3.702044,16.57,8.699,11,1.38,7.211,2.352,40.302,0.01,-0.2132,0.9784,0.795,-0.022,1.792,97.96,21.851,14.929,61.85,-60.4,0,normal
2024-03-15 10:00:35,35,0,takeoff,40.417647,-3.701996,17.52,8.002,13,1.44,7.83,0.137,42.611,-0.1796,-0.088,0.9945,0.094,-1.365,1.166,97.75,21.765,14.621,61.59,-66.0,0,normal
2024-03-15 10:00:36,36,0,takeoff,40.417662,-3.702007,18.26,8.37,12,1.24,7.496,0.39,43.222,-0.0112,-0.1632,0.9956,0.18,-0.811,-0.536,98.04,21.778,14.851,61.62,-62.1,0,normal
2024-03-15 10:00:37,37,0,takeoff,40.417496,-3.701956,17.99,10.709,12,1.23,9.165,-1.883,43.732,-0.0297,0.4044,1.0284,1.022,1.578,0.916,97.93,21.828,16.772,65.54,-68.0,0,normal
2024-03-15 10:00:38,38,0,takeoff,40.41747,-3.701989,19.25,1.356,13,1.22,8.562,1.989,45.034,0.2111,0.4995,0.9952,-0.768,-0.396,1.419,97.95,21.799,9.021,51.11,-70.3,0,normal
2024-03-15 10:00:39,39,0,takeoff,40.417487,-3.701929,19.75,5.158,12,2.2,7.699,-1.016,46.808,0.0656,-0.3387,1.0251,-0.202,-0.45,2.311,98.05,21.74,11.914,56.37,-68.7,0,normal
2024-03-15 10:00:40,40,0,takeoff,40.417455,-3.701867,20.29,7.171,11,1.48,8.036,0.181,47.798,-0.317,-0.3999,0.9886,0.555,0.181,1.113,98.02,21.837,13.628,60.47,-67.4,0,normal
2024-03-15 10:00:41,41,0,takeoff,40.417367,-3.701872,20.87,8.861,12,1.27,8.189,-0.447,48.544,-0.0614,-0.0524,0.9902,0.13,-0.502,0.725,97.92,21.781,14.917,61.61,-67.6,0,normal
2024-03-15 10:00:42,42,0,takeoff,40.417292,-3.701892,21.66,8.033,12,1.28,8.368,-0.643,49.553,0.2422,-0.083,1.0096,-1.636,0.514,1.218,98.03,21.846,14.571,61.24,-61.6,0,normal
2024-03-15 10:00:43,43,0,takeoff,40.417221,-3.701837,21.39,11.377,12,1.41,5.734,0.067,51.177,-0.2768,-0.0013,1.0314,-0.418,0.301,1.568,98.14,21.807,17.253,66.27,-69.8,0,normal
2024-03-15 10:00:44,44,0,takeoff,40.417101,-3.7018,22.03,8.824,11,1.32,7.595,0.731,52.897,-0.1327,0.3457,0.9958,-0.196,-1.063,2.519,97.88,21.741,14.952,62.16,-69.1,0,normal
2024-03-15 10:00:45,45,0,takeoff,40.417077,-3.701927,22.38,4.232,12,1.26,6.199,-0.885,53.997,0.4274,0.3018,0.9487,1.021,-1.595,1.364,98.06,21.893,11.454,55.76,-65.0,0,normal
2024-03-15 10:00:46,46,0,takeoff,40.417028,-3.701758,23.0,4.662,11,1.21,9.528,-0.675,54.949,-0.1452,-0.0715,0.9687,1.363,0.462,0.548,97.87,21.841,11.919,55.83,-72.0,0,normal
2024-03-15 10:00:47,47,0,takeoff,40.417041,-3.701826,23.96,4.715,13,1.51,7.927,-1.193,56.501,-0.0426,-0.6399,1.006,-1.469,-0.195,1.463,98.1,21.842,11.726,56.19,-67.3,0,normal
2024-03-15 10:00:48,48,0,takeoff,40.416943,-3.701783,23.6,15.137,11,1.64,7.765,-0.693,58.12,-0.1541,-0.1337,0.9705,-0.199,-0.299,1.236,97.91,21.828,20.082,71.27,-66.8,0,normal
2024-03-15 10:00:49,49,0,takeoff,40.416775,-3.701741,24.24,7.848,13,1.25,9.061,-2.36,58.997,-0.4118,0.5828,0.9827,0.377,-0.399,0.356,97.91,21.846,14.726,62.08,-66.0,0,normal
2024-03-15 10:00:50,50,0,takeoff,40.416816,-3.701869,25.41,5.132,13,1.21,8.47,-1.005,59.939,0.3327,-0.1091,1.0002,-1.625,0.024,0.442,98.1,21.841,11.997,56.96,-66.1,0,normal
2024-03-15 10:00:51,51,0,takeoff,40.416718,-3.701836,25.81,9.931,11,1.23,6.579,-1.15,61.664,0.1683,-0.0557,0.951,-0.314,0.151,1.288,98.06,21.773,16.225,64.81,-61.2,0,normal
2024-03-15 10:00:52,52,0,takeoff,40.416641,-3.701818,25.89,4.341,11,1.31,7.809,-1.355,61.92,0.0967,0.383,0.9924,0.593,-0.896,0.509,97.92,21.822,11.574,55.33,-69.9,0,normal
2024-03-15 10:00:53,53,0,takeoff,40.416642,-3.701848,26.76,4.418,13,1.27,7.445,-3.27,63.488,-0.0136,-0.0831,0.9767,-2.128,-0.914,2.014,98.0,21.872,11.3,54.84,-69.1,0,normal
2024-03-15 10:00:54,54,0,takeoff,40.416601,-3.701729,27.1,6.108,13,1.22,5.697,-2.947,64.699,-0.5383,-0.4911,0.97,0.071,0.435,0.951,97.91,21.836,12.841,58.28,-65.5,0,normal
2024-03-15 10:00:55,55,0,takeoff,40.416534,-3.701867,27.95,13.42,12,1.32,6.898,-2.703,65.382,0.1415,-0.2346,0.984,0.283,-1.243,0.908,97.82,21.792,18.948,69.67,-66.5,0,normal
2024-03-15 10:00:56,56,0,takeoff,40.416383,-3.701863,28.02,10.287,11,1.25,7.432,-4.473,66.99,0.1745,0.4312,0.9786,0.256,1.051,-0.218,98.0,21.851,16.267,64.18,-66.1,0,normal
2024-03-15 10:00:57,57,0,takeoff,40.416348,-3.701838,28.81,4.228,13,1.21,7.432,-1.661,67.363,-0.2114,0.3613,1.0094,-1.195,1.174,2.394,97.95,21.801,11.117,54.64,-71.5,0,normal
2024-03-15 10:00:58,58,0,takeoff,40.416319,-3.701923,29.79,4.222,11,1.41,5.701,-3.418,70.556,0.2169,-0.268,1.0239,0.389,-0.422,1.631,97.89,21.854,11.528,54.95,-60.6,0,normal
2024-03-15 10:00:59,59,0,takeoff,40.416291,-3.701899,29.68,9.089,11,1.37,8.763,-3.265,70.331,0.0322,-0.3325,0.9927,1.572,-0.609,0.894,98.11,21.911,15.177,62.5,-65.8,0,normal
2024-03-15 10:01:00,60,0,takeoff,40.416158,-3.701882,30.01,9.943,13,1.55,7.152,-4.264,72.793,-0.1882,0.0844,0.9881,-0.62,-0.911,0.999,97.89,21.737,16.077,63.88,-72.0,0,normal
2024-03-15 10:01:01,61,0,takeoff,40.416113,-3.701935,30.72,8.625,13,1.27,7.204,-5.146,73.219,-0.0622,0.0052,0.9917,0.635,0.642,1.744,98.0,21.877,15.463,62.62,-65.4,0,normal
2024-03-15 10:01:02,62,0,takeoff,40.416008,-3.701945,30.89,9.488,11,1.23,7.517,-4.549,74.682,-0.1354,0.3864,0.9778,-0.547,1.291,0.536,98.09,21.951,15.733,63.77,-70.5,0,normal
2024-03-15 10:01:03,63,0,takeoff,40.415946,-3.701991,32.22,5.321,12,1.29,5.96,-3.846,75.356,0.0829,0.5344,0.9742,0.209,1.519,0.926,97.95,21.84,12.456,57.38,-64.4,0,normal
2024-03-15 10:01:04,64,0,takeoff,40.415989,-3.702066,32.05,0.998,13,1.5,7.315,-3.505,76.904,0.4927,-0.3755,0.9671,0.319,-0.529,1.77,97.91,21.854,8.846,50.92,-71.1,0,normal
2024-03-15 10:01:05,65,0,takeoff,40.41596,-3.702002,32.42,9.817,11,1.26,6.181,-4.123,78.325,-0.1124,-0.4121,0.9734,-0.834,-0.702,2.04,98.01,21.792,15.71,63.73,-64.2,0,normal
2024-03-15 10:01:06,66,0,takeoff,40.415833,-3.70196,32.75,7.834,12,1.26,5.392,-4.037,79.532,-0.4974,0.2297,1.0326,0.961,-0.278,1.123,98.02,21.802,14.57,62.32,-71.0,0,normal
2024-03-15 10:01:07,67,0,takeoff,40.415832,-3.702078,33.83,7.69,11,1.23,6.996,-4.814,80.787,0.0829,-0.2151,0.9862,1.347,0.189,0.574,98.07,21.825,14.072,60.11,-70.1,0,normal
2024-03-15 10:01:08,68,0,takeoff,40.415746,-3.7021,34.26,10.529,11,2.06,7.93,-4.066,81.416,-0.003,-0.0629,0.9412,1.062,0.757,0.833,98.17,21.834,16.554,64.36,-66.8,0,normal
2024-03-15 10:01:09,69,0,takeoff,40.415644,-3.702111,34.35,8.405,13,1.88,6.835,-3.158,82.56,0.0238,0.5756,0.9883,-0.039,-0.165,1.346,97.93,21.744,15.118,61.72,-69.1,0,normal
2024-03-15 10:01:10,70,0,takeoff,40.415642,-3.702245,35.17,1.195,12,1.41,6.892,-4.006,83.203,0.2869,-0.0502,0.9682,-1.501,0.23,2.016,98.0,21.813,8.983,51.41,-68.8,0,normal
2024-03-15 10:01:11,71,0,takeoff,40.415651,-3.702135,35.05,6.549,11,1.25,4.973,-3.965,85.462,-0.0817,-0.2582,1.0012,-1.791,-0.31,1.182,97.85,21.836,13.486,58.73,-71.8,0,normal
2024-03-15 10:01:12,72,0,takeoff,40.415523,-3.702249,36.06,6.393,12,1.49,3.487,-4.536,86.941,-0.2458,-0.3241,0.999,1.208,-1.816,1.531,98.04,21.766,13.195,58.56,-68.2,0,normal
2024-03-15 10:01:13,73,0,takeoff,40.415556,-3.702218,36.64,13.44,12,1.38,6.992,-6.381,88.408,0.0187,-0.1159,1.0011,2.011,-1.263,0.289,98.0,21.831,18.645,68.42,-64.6,0,normal
2024-03-15 10:01:14,74,0,takeoff,40.4153,-3.702379,37.51,7.756,13,1.48,7.464,-5.962,88.953,0.2831,0.7498,0.9992,0.167,1.066,1.046,97.96,21.822,14.276,61.47,-61.7,0,normal
2024-03-15 10:01:15,75,0,takeoff,40.415427,-3.702295,37.27,2.609,11,1.59,6.639,-4.495,89.617,-0.1445,-0.0292,0.9925,-1.249,1.99,0.911,97.91,21.791,9.966,53.54,-64.8,0,normal
2024-03-15 10:01:16,76,0,takeoff,40.415346,-3.702392,37.62,10.152,11,1.28,4.169,-4.985,90.351,-0.2313,-0.3688,0.9709,-2.517,-0.516,1.191,97.94,21.836,16.39,63.73,-65.2,0,normal
2024-03-15 10:01:17,77,0,takeoff,40.415285,-3.70245,38.23,6.964,13,1.69,2.965,-4.551,92.921,0.0453,-0.0731,0.9985,-0.021,0.674,1.942,98.0,21.843,13.825,60.68,-72.3,0,normal
2024-03-15 10:01:18,78,0,takeoff,40.415264,-3.702513,38.6,10.651,13,1.66,2.845,-3.322,92.702,0.1822,0.001,1.0204,-0.794,1.341,1.022,97.88,21.781,16.592,64.26,-67.3,0,normal
2024-03-15 10:01:19,79,0,takeoff,40.41512,-3.702587,39.9,5.564,11,1.36,1.873,-4.273,94.63,0.0992,0.6159,1.0363,0.044,-0.447,1.706,97.94,21.865,12.828,58.17,-69.3,0,normal
2024-03-15 10:01:20,80,0,takeoff,40.415171,-3.702564,40.46,4.242,13,1.43,3.529,-3.733,95.888,-0.423,0.2927,0.9952,1.437,-0.076,1.178,97.98,21.846,11.44,55.17,-71.8,0,normal
2024-03-15 10:01:21,81,0,takeoff,40.415164,-3.702669,40.6,10.962,11,1.31,5.346,-4.881,97.165,-0.1919,-0.4694,0.9974,0.143,-0.075,1.261,97.82,21.867,16.96,65.33,-71.0,0,normal
2024-03-15 10:01:22,82,0,takeoff,40.415185,-3.702827,41.37,9.388,12,1.41,3.006,-5.759,98.418,0.5558,-0.5855,1.01,-1.16,-0.524,1.061,97.87,21.795,16.131,63.55,-65.1,0,normal
2024-03-15 10:01:23,83,0,takeoff,40.415053,-3.702838,41.54,9.912,12,1.36,3.292,-4.979,99.669,0.2812,0.1495,1.0299,0.33,-0.118,0.217,97.91,21.789,16.514,65.56,-68.9,0,normal
2024-03-15 10:01:24,84,0,takeoff,40.415007,-3.702846,41.97,3.729,13,1.28,4.331,-5.686,99.592,-0.1799,0.5975,0.9903,-0.887,0.609,1.784,98.13,21.837,10.975,54.69,-71.7,0,normal
2024-03-15 10:01:25,85,0,takeoff,40.414993,-3.702877,42.4,4.731,12,1.28,1.942,-3.276,102.007,-0.0644,0.1357,1.0139,-0.755,0.09,1.0,97.89,21.861,11.885,56.51,-69.2,0,normal
2024-03-15 10:01:26,86,0,takeoff,40.415036,-3.702951,42.91,3.034,11,1.41,4.614,-3.989,102.085,-0.2364,-0.4277,0.9835,0.76,0.325,1.116,97.97,21.809,10.266,52.94,-66.3,0,normal
2024-03-15 10:01:27,87,0,takeoff,40.414981,-3.702945,43.04,11.161,12,1.83,4.305,-4.196,104.766,-0.2265,-0.0867,1.0066,-2.179,-0.004,1.554,97.87,21.793,17.108,65.09,-69.3,0,normal
2024-03-15 10:01:28,88,0,takeoff,40.414914,-3.703161,44.08,7.514,12,1.25,1.497,-3.41,105.322,0.2403,0.3256,1.0194,-1.937,-1.635,1.19,97.89,21.901,14.148,60.24,-70.8,0,normal
2024-03-15 10:01:29,89,0,takeoff,40.414944,-3.703115,44.49,4.793,12,1.3,0.699,-6.589,105.721,0.1306,0.0926,0.9742,0.567,-0.465,1.701,97.83,21.723,11.757,56.42,-70.0,0,normal
2024-03-15 10:01:30,90,0,takeoff,40.414903,-3.703273,45.22,3.954,11,1.53,1.966,-3.896,107.593,0.1417,-0.224,0.9895,0.151,0.908,1.399,98.04,21.848,11.432,55.52,-64.5,0,normal
2024-03-15 10:01:31,91,0,takeoff,40.414928,-3.703204,45.53,4.328,13,1.23,0.447,-5.702,108.915,-0.1225,-0.2269,1.0191,-0.749,-0.146,2.315,97.84,21.789,11.467,56.13,-73.4,0,normal
2024-03-15 10:01:32,92,0,takeoff,40.414828,-3.703307,45.95,7.872,11,2.23,-0.789,-4.3,110.995,-0.295,0.1583,1.0123,1.228,0.206,1.446,98.06,21.822,14.23,60.68,-68.1,0,normal
2024-03-15 10:01:33,93,0,takeoff,40.414832,-3.703343,46.24,6.791,13,1.43,1.87,-4.498,111.698,0.1561,0.0145,1.0207,0.893,0.648,0.567,98.02,21.778,13.575,59.44,-67.6,0,normal
2024-03-15 10:01:34,94,0,takeoff,40.414816,-3.703468,47.02,5.564,12,1.68,1.526,-3.412,112.972,0.3108,0.0525,1.017,-0.933,0.792,1.208,97.96,21.782,12.409,57.6,-69.5,0,normal
2024-03-15 10:01:35,95,0,takeoff,40.414751,-3.703423,47.72,1.611,12,1.56,-0.014,-3.727,114.591,-0.1588,0.4324,0.9932,-1.77,0.452,1.776,98.06,21.814,9.303,51.8,-70.2,0,normal
2024-03-15 10:01:36,96,0,takeoff,40.414831,-3.703497,47.66,7.857,12,1.5,-1.982,-2.484,115.152,-0.3472,-0.1078,1.044,-2.173,-0.404,2.135,98.28,21.9,14.767,62.05,-64.3,0,normal
2024-03-15 10:01:37,97,0,takeoff,40.414822,-3.703583,48.53,7.805,11,1.21,-2.208,-4.3,116.777,0.0999,-0.2614,1.0027,-0.052,0.325,1.555,98.02,21.869,14.129,60.71,-64.3,0,normal
2024-03-15 10:01:38,98,0,takeoff,40.414804,-3.703681,49.07,5.56,12,1.3,-0.869,-2.851,117.942,0.0313,-0.1367,0.9389,0.09,0.433,0.407,97.86,21.707,12.766,58.43,-66.9,0,normal
2024-03-15 10:01:39,99,0,takeoff,40.414789,-3.703708,49.28,7.784,11,1.25,-1.862,-3.255,118.157,0.0725,0.0307,0.9944,-0.619,-0.222,1.335,98.12,21.785,14.127,60.79,-68.9,0,normal
2024-03-15 10:01:40,100,0,takeoff,40.414729,-3.703835,49.82,4.677,11,1.61,-1.934,-4.904,120.736,0.3031,0.3686,0.9906,0.908,-0.768,0.785,97.99,21.848,11.575,56.52,-67.0,0,normal
2024-03-15 10:01:41,101,0,takeoff,40.41478,-3.70382,50.57,3.127,13,1.43,-0.559,-4.033,120.49,-0.0113,-0.0331,1.0159,0.616,0.509,0.753,98.18,21.888,10.533,54.37,-66.0,0,normal
2024-03-15 10:01:42,102,0,takeoff,40.414787,-3.703843,50.66,5.032,13,1.22,-1.165,-3.105,122.859,-0.5189,-0.1275,0.991,-0.929,0.725,0.818,97.92,21.734,12.589,58.53,-67.6,0,normal
2024-03-15 10:01:43,103,0,takeoff,40.414769,-3.703935,51.6,10.345,13,1.29,-0.647,-1.679,122.841,-0.1197,0.2574,1.022,-1.03,0.353,1.081,98.1,21.884,16.498,64.43,-66.0,0,normal
2024-03-15 10:01:44,104,0,takeoff,40.414808,-3.704087,51.73,8.077,13,1.21,-3.744,-2.16,125.101,0.2367,0.2888,1.0112,-1.196,-0.968,2.105,97.97,21.816,14.588,61.68,-68.3,0,normal
2024-03-15 10:01:45,105,0,takeoff,40.414845,-3.704095,52.82,9.46,11,1.47,-3.218,-3.619,126.931,0.1178,-0.1685,0.98,1.112,-0.791,0.922,98.23,21.904,15.523,62.25,-76.6,0,normal
2024-03-15 10:01:46,106,0,takeoff,40.41493,-3.704239,53.7,4.756,11,1.31,-2.144,-2.415,127.094,0.2767,-0.5031,0.9972,0.762,1.819,0.56,97.94,21.768,11.736,56.6,-67.7,0,normal
2024-03-15 10:01:47,107,0,takeoff,40.414857,-3.704208,53.24,3.253,13,1.25,-2.761,-0.077,128.272,-0.3073,0.0348,0.9845,0.15,0.59,1.786,98.27,21.803,10.352,53.66,-65.1,0,normal
2024-03-15 10:01:48,108,0,takeoff,40.414876,-3.704275,54.16,10.356,13,1.35,-1.701,-1.801,129.905,-0.3546,-0.0639,1.0037,0.367,-1.721,1.067,98.01,21.809,16.655,65.45,-67.1,0,normal
2024-03-15 10:01:49,109,0,takeoff,40.414876,-3.704451,54.28,9.345,13,1.21,-3.273,-2.053,130.635,0.4503,0.0855,0.9844,-0.49,0.117,1.419,98.05,21.819,15.576,63.88,-66.2,0,normal
2024-03-15 10:01:50,110,0,takeoff,40.414802,-3.704476,55.31,2.856,13,1.26,-1.792,-1.045,132.909,0.2778,0.6133,1.0015,-0.632,1.019,1.242,98.14,21.832,10.326,53.99,-68.2,0,normal
2024-03-15 10:01:51,111,0,takeoff,40.414917,-3.704492,55.12,8.424,13,1.24,-3.591,-0.582,133.296,-0.2888,0.3607,0.9946,-0.483,-0.826,1.437,97.89,21.782,14.797,61.43,-67.8,0,normal
2024-03-15 10:01:52,112,0,takeoff,40.414943,-3.704551,56.14,11.734,13,1.73,-3.188,-1.608,134.24,0.0093,-0.2894,0.997,-0.924,-0.094,0.771,98.06,21.919,17.814,66.52,-66.7,0,normal
2024-03-15 10:01:53,113,0,takeoff,40.415088,-3.704655,56.24,4.136,13,1.29,-5.069,-0.453,135.33,0.267,-0.6351,1.041,-0.714,0.804,1.345,97.94,21.725,11.492,55.95,-61.3,0,normal
2024-03-15 10:01:54,114,0,takeoff,40.414981,-3.704632,56.94,3.556,12,1.38,-4.878,-1.088,136.334,-0.1493,0.1098,0.9928,1.526,1.204,0.804,97.98,21.777,10.828,54.35,-64.7,0,normal
2024-03-15 10:01:55,115,0,takeoff,40.415033,-3.704695,57.19,7.023,13,1.34,-4.01,0.159,137.686,-0.2959,0.1221,0.9613,0.951,0.668,1.521,97.97,21.796,14.094,60.7,-65.1,0,normal
2024-03-15 10:01:56,116,0,takeoff,40.415046,-3.704773,58.25,6.641,13,1.42,-3.37,-0.192,139.025,0.2176,0.1631,1.0203,-0.202,-0.004,1.508,98.02,21.828,13.348,58.77,-66.6,0,normal
2024-03-15 10:01:57,117,0,takeoff,40.41502,-3.704856,58.25,7.108,11,1.27,-4.627,0.32,140.156,0.4269,0.492,1.0202,-1.646,-0.515,1.665,98.02,21.861,13.408,58.67,-71.3,0,normal
2024-03-15 10:01:58,118,0,takeoff,40.415168,-3.704819,59.17,9.222,13,1.23,-5.792,-0.721,141.271,-0.3109,-0.1798,0.9604,-0.648,0.004,1.654,97.91,21.848,15.191,62.22,-63.5,0,normal
2024-03-15 10:01:59,119,0,takeoff,40.415183,-3.704841,59.4,7.892,13,1.22,-4.224,-0.583,143.849,-0.4923,-0.472,0.986,-1.482,1.619,0.55,97.98,21.872,14.317,61.02,-64.4,0,normal
2024-03-15 10:02:00,120,0,takeoff,40.415222,-3.705,64.63,9.195,13,1.24,-8.685,1.383,143.485,0.303,0.1482,1.0087,-1.321,-0.008,0.32,97.73,21.796,15.441,62.85,-66.1,0,normal
2024-03-15 10:02:01,121,0,cruise,40.415174,-3.705056,64.72,6.305,11,1.33,-7.932,0.557,145.273,0.2574,0.1591,1.0105,1.395,0.323,2.088,98.06,21.748,13.24,58.42,-67.4,0,normal
2024-03-15 10:02:02,122,0,cruise,40.415329,-3.70505,64.47,4.616,11,1.25,-5.571,1.119,146.696,-0.1721,-0.202,0.9999,0.902,-0.22,2.362,98.13,21.764,11.509,56.62,-65.5,0,normal
2024-03-15 10:02:03,123,0,cruise,40.41523,-3.705141,64.78,5.9,12,1.31,-6.529,0.724,147.915,0.0852,0.5883,1.0004,0.514,0.073,1.454,97.98,21.876,12.676,57.75,-68.0,0,normal
2024-03-15 10:02:04,124,0,cruise,40.415371,-3.705176,65.19,14.934,11,1.21,-5.969,2.124,148.771,-0.0917,-0.0641,0.9812,0.585,-0.034,0.351,97.8,21.839,19.842,69.58,-65.0,0,normal
2024-03-15 10:02:05,125,0,cruise,40.415495,-3.705177,64.51,7.613,11,1.4,-6.761,0.811,149.88,-0.0175,-0.8836,0.952,0.055,0.17,1.728,98.04,21.861,14.457,61.49,-69.6,0,normal
2024-03-15 10:02:06,126,0,cruise,40.415381,-3.705353,65.11,3.482,12,1.62,-6.287,1.473,151.426,0.4208,0.3791,1.041,-0.573,1.041,0.855,97.88,21.76,11.165,55.09,-73.1,0,normal
2024-03-15 10:02:07,127,0,cruise,40.415449,-3.705234,65.22,8.155,11,1.21,-8.077,2.583,152.533,-0.2533,0.3766,0.9806,-0.882,0.982,0.848,97.98,21.802,14.974,61.87,-70.8,0,normal
2024-03-15 10:02:08,128,0,cruise,40.41553,-3.705337,64.55,8.978,12,1.25,-6.534,3.155,153.471,-0.2273,-0.3416,1.0035,0.655,-0.295,0.837,98.03,21.808,15.263,62.38,-66.8,0,normal
2024-03-15 10:02:09,129,0,cruise,40.415549,-3.705401,64.37,3.811,12,1.28,-6.136,1.64,154.019,0.228,0.0967,0.9968,0.143,0.807,1.325,98.01,21.774,11.431,55.48,-68.2,0,normal
2024-03-15 10:02:10,130,0,cruise,40.415547,-3.705422,64.91,7.53,11,1.27,-5.967,4.302,155.766,-0.1656,0.3302,1.0179,0.087,0.538,1.337,98.07,21.848,13.939,60.93,-67.7,0,normal
2024-03-15 10:02:11,131,0,cruise,40.415679,-3.705456,64.67,9.573,11,1.21,-5.11,2.831,156.627,0.1372,0.0082,1.0023,-0.552,-1.013,0.85,97.97,21.925,15.708,63.51,-71.1,0,normal
2024-03-15 10:02:12,132,0,cruise,40.415675,-3.705575,65.4,7.276,12,1.22,-7.32,1.645,158.066,0.3946,-0.04,1.0031,-0.17,-0.133,2.025,97.98,21.793,13.618,59.64,-66.4,0,normal
2024-03-15 10:02:13,133,0,cruise,40.415806,-3.705447,64.87,6.565,12,1.69,-7.362,3.224,159.617,-0.2546,0.1076,0.9473,-0.375,0.82,1.193,98.03,21.894,13.525,59.21,-70.2,0,normal
2024-03-15 10:02:14,134,0,cruise,40.415791,-3.705551,64.63,10.365,12,1.45,-9.588,2.633,160.979,-0.0783,0.0395,0.9833,-0.426,0.62,2.264,97.95,21.769,16.399,65.38,-65.8,0,normal
2024-03-15 10:02:15,135,0,cruise,40.41597,-3.70556,64.53,6.436,12,1.84,-8.458,3.608,162.89,-0.0282,-0.4016,1.0149,1.132,0.674,0.296,97.89,21.725,12.703,58.29,-71.4,0,normal
2024-03-15 10:02:16,136,0,cruise,40.415909,-3.705562,65.22,5.412,11,1.32,-8.104,3.283,162.931,-0.1361,0.2269,1.0131,0.537,0.345,1.056,98.0,21.873,12.591,58.16,-69.7,0,normal
2024-03-15 10:02:17,137,0,cruise,40.41599,-3.705687,64.73,11.238,13,1.62,-6.655,3.546,164.787,0.2292,0.1619,0.981,0.443,-0.058,0.798,97.84,21.782,17.218,66.13,-70.2,0,normal
2024-03-15 10:02:18,138,0,cruise,40.416104,-3.705636,64.92,3.862,12,1.54,-8.683,2.702,165.753,0.111,-0.2864,0.9684,-0.963,1.183,0.913,97.95,21.877,11.073,55.43,-65.5,0,normal
2024-03-15 10:02:19,139,0,cruise,40.416061,-3.705695,65.21,5.177,11,1.62,-7.019,4.739,167.448,-0.2778,0.4905,1.0025,0.801,-1.126,1.011,97.82,21.862,12.206,57.17,-68.6,0,normal
2024-03-15 10:02:20,140,0,cruise,40.416193,-3.70566,64.78,14.86,12,1.21,-7.994,2.722,168.288,-0.1532,-0.1697,0.9419,-0.348,-0.496,1.384,97.9,21.79,19.764,70.39,-65.9,0,normal
2024-03-15 10:02:21,141,0,cruise,40.416307,-3.705827,64.92,3.785,13,1.41,-8.212,2.892,168.696,0.3892,-0.4938,0.977,-0.231,1.869,1.279,97.9,21.872,10.943,54.88,-63.9,0,normal
2024-03-15 10:02:22,142,0,cruise,40.416222,-3.705742,64.94,4.273,11,1.37,-7.7,4.485,169.538,0.1638,0.5425,1.0352,-0.227,1.158,1.967,97.86,21.752,11.858,57.39,-61.9,0,normal
2024-03-15 10:02:23,143,0,cruise,40.416373,-3.705782,65.16,11.937,11,1.36,-8.458,5.831,171.756,-0.0276,0.2704,1.0289,-0.959,-0.62,1.515,98.07,21.79,17.406,66.43,-66.6,0,normal
2024-03-15 10:02:24,144,0,cruise,40.416438,-3.705743,65.13,8.826,13,1.34,-8.484,3.979,172.536,-0.1468,-0.4587,1.0097,-1.311,0.292,0.971,98.06,21.887,15.092,62.8,-70.5,0,normal
2024-03-15 10:02:25,145,0,cruise,40.416526,-3.705752,64.9,4.253,13,1.52,-9.987,5.129,173.51,-0.2457,-0.3648,1.0061,-0.655,0.342,1.648,98.09,21.761,11.141,55.65,-63.4,0,normal
2024-03-15 10:02:26,146,0,cruise,40.416487,-3.70582,64.99,3.409,11,1.89,-8.203,5.59,174.566,0.2063,0.4524,0.961,1.16,-0.191,1.836,97.94,21.81,10.911,54.92,-62.7,0,normal
2024-03-15 10:02:27,147,0,cruise,40.416546,-3.705827,64.86,11.939,13,1.55,-8.436,5.414,176.48,0.0885,0.5144,0.9852,0.492,-0.529,1.903,97.91,21.868,17.708,67.7,-67.4,0,normal
2024-03-15 10:02:28,148,0,cruise,40.416701,-3.705802,64.54,11.551,11,1.61,-8.425,4.363,178.354,0.0861,-0.269,0.9941,-0.484,-1.281,1.801,98.03,21.895,17.403,65.24,-63.3,0,normal
2024-03-15 10:02:29,149,0,cruise,40.416752,-3.705844,65.06,6.513,13,1.33,-7.243,3.65,178.596,0.0667,-0.2316,0.9856,1.691,-0.447,1.378,97.97,21.795,13.347,58.11,-66.3,0,normal
2024-03-15 10:02:30,150,0,cruise,40.416813,-3.705758,65.56,7.155,12,1.43,-6.881,2.593,180.295,-0.501,-0.0932,0.993,-0.041,0.075,1.398,97.97,21.867,14.03,61.12,-72.2,0,normal
2024-03-15 10:02:31,151,0,cruise,40.41688,-3.705817,64.73,8.971,12,1.31,-7.313,4.59,181.149,-0.0138,0.0038,1.026,0.431,1.921,0.501,97.7,21.71,15.144,61.94,-69.1,0,normal
2024-03-15 10:02:32,152,0,cruise,40.416892,-3.705941,64.76,6.541,11,1.29,-6.309,6.075,181.755,0.619,0.2911,0.9892,-0.438,-0.248,1.135,98.03,21.795,13.054,58.55,-68.9,0,normal
2024-03-15 10:02:33,153,0,cruise,40.417,-3.70581,64.73,10.603,11,1.65,-6.716,3.809,183.967,-0.1421,-0.1133,0.9932,-0.013,0.625,1.081,98.01,21.837,16.385,65.37,-68.3,0,normal
2024-03-15 10:02:34,154,0,cruise,40.417065,-3.705836,65.22,4.605,11,1.67,-7.656,5.662,184.253,-0.1921,0.0757,1.0148,-0.414,0.694,1.25,97.95,21.832,11.459,55.73,-70.1,0,normal
2024-03-15 10:02:35,155,0,cruise,40.417077,-3.705857,65.13,11.034,12,1.43,-7.744,4.033,186.011,0.3543,0.2947,0.9716,1.051,-0.545,1.806,98.03,21.776,16.928,66.32,-70.2,0,normal
2024-03-15 10:02:36,156,0,cruise,40.417268,-3.705826,64.95,11.144,12,1.56,-6.692,5.101,187.029,0.3027,-0.6389,0.9832,1.357,0.205,0.696,98.01,21.918,16.937,65.29,-63.3,0,normal
2024-03-15 10:02:37,157,0,cruise,40.41726,-3.705746,64.72,6.933,11,1.29,-6.25,5.708,188.847,-0.1598,-0.1472,0.9852,1.451,0.037,0.048,97.88,21.706,13.686,59.94,-72.4,0,normal
2024-03-15 10:02:38,158,0,cruise,40.417238,-3.705671,65.03,7.534,14,1.31,-5.125,4.337,189.071,-0.4783,0.4444,1.0011,0.187,-0.603,0.599,97.93,21.812,13.707,59.7,-69.3,0,normal
2024-03-15 10:02:39,159,0,cruise,40.417391,-3.705705,64.53,7.715,12,1.54,-5.229,5.156,190.995,0.0056,0.0108,0.9931,-1.12,-0.061,1.051,97.85,21.804,14.19,61.29,-65.4,0,normal
2024-03-15 10:02:40,160,0,cruise,40.417369,-3.705732,65.04,7.407,12,1.3,-7.156,4.551,191.58,0.2033,0.2667,0.9937,-0.927,-0.286,1.572,98.1,21.753,14.187,60.41,-68.9,0,normal
2024-03-15 10:02:41,161,0,cruise,40.417517,-3.705659,65.26,12.551,12,1.21,-6.47,5.644,192.944,-0.1272,-0.2639,0.9867,1.337,0.633,0.361,98.05,21.898,18.195,67.27,-66.0,0,normal
2024-03-15 10:02:42,162,0,cruise,40.417594,-3.705683,64.62,1.878,14,1.29,-5.377,5.139,192.582,-0.0395,-0.3266,0.9786,1.038,-0.687,1.978,97.87,21.761,9.187,51.3,-68.5,0,normal
2024-03-15 10:02:43,163,0,cruise,40.417553,-3.70567,64.53,5.651,13,1.3,-4.728,4.917,196.646,0.0078,0.4108,1.0122,0.871,0.597,2.455,98.01,21.83,12.555,57.39,-65.9,0,normal
2024-03-15 10:02:44,164,0,cruise,40.4177,-3.705667,65.46,9.574,14,1.23,-4.703,6.368,197.075,0.1614,-0.022,0.9932,0.06,0.239,-0.027,97.98,21.835,15.533,62.64,-70.4,0,normal
2024-03-15 10:02:45,165,0,cruise,40.417729,-3.70567,64.8,7.146,13,1.28,-5.721,5.413,197.616,0.3119,0.0212,1.0124,-1.99,-1.095,1.511,97.88,21.727,13.756,59.42,-72.9,0,normal
2024-03-15 10:02:46,166,0,cruise,40.417805,-3.705572,65.32,12.081,13,1.74,-6.957,3.995,198.638,-0.0237,-0.1461,0.9778,0.309,-0.113,0.936,97.96,21.762,17.655,67.34,-68.5,0,normal
2024-03-15 10:02:47,167,0,cruise,40.417913,-3.705514,64.93,4.548,14,1.59,-6.453,4.526,200.152,-0.2295,-0.5846,0.9867,1.592,0.109,2.44,98.03,21.907,12.026,57.35,-72.6,0,normal
2024-03-15 10:02:48,168,0,cruise,40.417859,-3.705493,64.92,2.359,13,1.32,-4.723,4.455,201.958,-0.0854,0.0604,0.9956,0.827,-0.372,0.788,98.04,21.827,9.917,53.05,-67.4,0,normal
2024-03-15 10:02:49,169,0,cruise,40.417886,-3.705475,65.1,4.029,14,1.45,-4.43,4.523,201.854,0.1617,0.3411,0.9974,-0.436,0.279,0.817,98.18,21.722,11.294,55.01,-70.6,0,normal
2024-03-15 10:02:50,170,0,cruise,40.417931,-3.705465,64.69,7.647,13,1.23,-5.944,6.871,203.929,0.0754,0.1622,1.0151,-0.023,0.098,1.56,97.96,21.799,14.154,60.19,-70.6,0,normal
2024-03-15 10:02:51,171,0,cruise,40.417985,-3.70535,64.99,8.173,12,1.48,-4.352,4.616,206.085,-0.0503,0.1787,0.9914,1.569,-2.464,1.051,97.92,21.806,14.659,60.35,-62.7,0,normal
2024-03-15 10:02:52,172,0,cruise,40.418071,-3.705407,64.83,9.248,13,1.33,-3.423,2.1,205.833,0.0974,-0.1012,1.0149,-0.676,-0.924,1.905,98.0,21.834,15.4,62.91,-66.5,0,normal
2024-03-15 10:02:53,173,0,cruise,40.41814,-3.705261,64.54,7.606,14,1.46,-5.332,3.477,207.64,-0.1608,-0.1038,1.0075,0.756,-0.036,2.241,97.93,21.709,14.262,60.33,-71.8,0,normal
2024-03-15 10:02:54,174,0,cruise,40.418183,-3.705308,65.03,6.389,13,1.41,-2.391,1.965,209.902,-0.0812,-0.1048,0.9979,0.734,0.409,1.473,97.89,21.8,13.04,59.21,-67.4,0,normal
2024-03-15 10:02:55,175,0,cruise,40.418256,-3.705252,64.84,4.983,12,1.25,-3.932,3.44,210.316,0.2086,0.0073,0.981,0.116,0.397,0.347,97.85,21.753,12.319,56.49,-67.7,0,normal
2024-03-15 10:02:56,176,0,cruise,40.418259,-3.705242,64.86,8.055,14,1.56,-1.727,1.648,211.263,0.3503,0.0148,1.0151,0.245,-1.176,1.465,97.6,21.759,14.589,60.96,-73.5,0,normal
2024-03-15 10:02:57,177,0,cruise,40.418373,-3.705148,64.54,9.986,12,1.37,-3.631,2.623,212.653,0.1006,0.1343,0.9815,0.23,-0.09,1.147,98.02,21.851,16.014,63.78,-66.3,0,normal
2024-03-15 10:02:58,178,0,cruise,40.418328,-3.705026,65.37,10.191,12,1.51,-3.974,1.828,213.4,-0.2775,0.1147,0.9996,-0.047,0.96,1.367,97.78,21.801,16.323,64.61,-64.3,0,normal
2024-03-15 10:02:59,179,0,cruise,40.418516,-3.705,65.14,8.064,12,1.22,-3.04,3.582,215.45,-0.1078,-0.6802,0.9989,0.687,1.405,1.448,97.86,21.866,14.553,62.1,-68.6,0,normal
2024-03-15 10:03:00,180,0,cruise,40.418449,-3.704927,65.16,7.171,14,1.39,-2.35,3.042,215.8,-0.191,-0.3855,0.9959,-0.036,-0.608,-0.523,97.97,21.927,13.915,59.36,-68.1,0,normal
2024-03-15 10:03:01,181,0,cruise,40.418411,-3.704898,64.77,0.91,13,1.27,-2.444,3.184,216.22,-0.0767,0.6951,0.9922,-0.096,0.473,1.152,97.91,21.749,8.769,50.63,-68.8,0,normal
2024-03-15 10:03:02,182,0,cruise,40.418435,-3.704927,64.33,7.845,12,1.59,-1.978,2.61,218.204,0.2713,0.3587,0.9836,1.102,-1.692,0.85,98.16,21.833,14.277,59.98,-66.0,0,normal
2024-03-15 10:03:03,183,0,cruise,40.418546,-3.704835,65.42,7.838,14,1.8,-1.057,1.151,219.117,0.2691,-0.147,0.9677,0.647,0.711,1.242,97.79,21.821,14.394,61.31,-68.0,0,normal
2024-03-15 10:03:04,184,0,cruise,40.418541,-3.704803,64.8,9.077,13,1.21,-1.4,2.884,220.659,-0.0479,-0.035,1.0281,0.021,1.341,1.015,98.17,21.848,15.246,62.12,-67.9,0,normal
2024-03-15 10:03:05,185,0,cruise,40.418618,-3.704641,64.58,6.317,13,1.46,-1.009,4.115,221.87,-0.1856,-0.181,0.9902,-0.145,0.55,1.242,98.08,21.702,13.279,58.85,-69.7,0,normal
2024-03-15 10:03:06,186,0,cruise,40.418633,-3.704711,64.92,4.052,14,1.22,-2.716,2.421,223.799,0.3032,-0.2856,0.9974,0.937,-1.589,0.772,98.03,21.819,11.543,55.69,-61.1,0,normal
2024-03-15 10:03:07,187,0,cruise,40.418632,-3.70455,65.13,9.383,14,1.59,0.071,1.401,224.748,0.1839,-0.1103,0.9973,1.157,-1.26,1.524,98.09,21.9,15.631,63.19,-68.0,0,normal
2024-03-15 10:03:08,188,0,cruise,40.418617,-3.704492,64.76,7.03,13,1.23,-0.239,0.211,225.732,-0.3673,0.217,1.0219,0.231,-0.497,0.687,97.98,21.749,13.973,60.07,-65.1,0,normal
2024-03-15 10:03:09,189,0,cruise,40.418606,-3.704386,65.13,4.193,13,1.24,2.067,0.541,226.799,-0.226,0.5067,1.0387,0.171,-0.019,0.557,97.77,21.79,11.696,55.57,-66.3,0,normal
2024-03-15 10:03:10,190,0,cruise,40.41868,-3.704439,65.06,9.08,12,1.26,-0.726,1.709,227.471,0.4335,0.0356,1.0032,-1.7,-0.084,1.421,97.99,21.726,15.22,62.44,-74.9,0,normal
2024-03-15 10:03:11,191,0,cruise,40.418763,-3.704322,64.39,11.419,13,1.46,-1.503,2.135,228.109,-0.0174,-0.6194,0.9969,1.211,-0.036,1.777,97.79,21.827,17.311,65.76,-68.4,0,normal
2024-03-15 10:03:12,192,0,cruise,40.418748,-3.704183,64.5,4.71,12,1.27,1.674,1.126,230.457,-0.67,-0.1443,0.9775,1.325,0.161,0.927,97.89,21.813,11.579,56.25,-70.7,0,normal
2024-03-15 10:03:13,193,0,cruise,40.41869,-3.704267,64.97,3.259,12,1.38,1.613,1.468,231.997,0.0343,0.5166,0.9711,-0.34,0.329,1.837,97.93,21.781,10.731,54.34,-64.2,0,normal
2024-03-15 10:03:14,194,0,cruise,40.418773,-3.704252,63.85,6.385,13,1.37,0.25,1.177,232.746,0.6689,-0.1724,0.9645,-0.689,-0.973,1.692,97.85,21.773,12.978,57.84,-71.0,0,normal
2024-03-15 10:03:15,195,0,cruise,40.418795,-3.704207,64.6,10.152,14,1.3,-0.115,0.776,233.733,0.11,-0.3137,0.9841,1.669,-0.643,2.12,98.03,21.754,16.147,65.27,-65.8,0,normal
2024-03-15 10:03:16,196,0,cruise,40.41874,-3.704015,64.2,5.365,13,1.36,3.825,-0.589,235.432,-0.3915,0.2625,0.9582,1.412,-0.861,1.647,97.92,21.857,12.13,57.66,-64.2,0,normal
2024-03-15 10:03:17,197,0,cruise,40.418799,-3.704082,64.46,4.407,12,1.23,3.935,0.044,236.358,0.2573,-0.1888,1.0216,-1.625,-0.091,0.954,97.98,21.779,11.809,57.48,-66.4,0,normal
2024-03-15 10:03:18,198,0,cruise,40.418799,-3.703944,64.5,10.638,13,1.62,-0.493,-1.178,238.443,0.1961,-0.1442,1.0085,-0.568,0.288,1.504,97.94,21.836,16.457,64.45,-67.2,0,normal
2024-03-15 10:03:19,199,0,cruise,40.418742,-3.703841,64.46,6.44,13,1.25,2.194,-0.512,239.416,-0.2529,0.3848,0.995,2.869,0.575,0.294,97.95,21.765,13.348,58.61,-68.3,0,normal
2024-03-15 10:03:20,200,0,cruise,40.418818,-3.703791,64.38,7.187,14,1.62,4.99,-0.397,240.48,-0.0179,0.0172,1.0222,-1.092,1.367,0.648,97.85,21.904,13.801,60.25,-67.6,0,normal
2024-03-15 10:03:21,201,0,cruise,40.418827,-3.703716,64.2,5.689,12,1.35,2.668,0.754,241.579,0.0713,-0.2057,0.9786,-1.068,-1.092,0.082,97.82,21.867,12.247,57.6,-71.3,0,normal
2024-03-15 10:03:22,202,0,cruise,40.41885,-3.703663,65.19,7.203,12,1.39,2.892,-2.43,241.755,-0.1561,-0.4975,0.9836,0.235,-0.902,0.863,97.92,21.912,13.715,59.79,-66.7,0,normal
2024-03-15 10:03:23,203,0,cruise,40.418844,-3.703548,65.04,8.071,12,1.26,3.38,-0.833,243.931,-0.3183,-0.38,0.9613,-0.451,1.236,1.699,97.84,21.902,14.467,59.99,-64.1,0,normal
2024-03-15 10:03:24,204,0,cruise,40.418715,-3.703597,64.11,6.427,12,1.25,2.608,-0.025,244.988,0.1301,0.5769,1.0155,-0.244,-0.723,0.963,98.08,21.805,13.185,58.24,-69.8,0,normal
2024-03-15 10:03:25,205,0,cruise,40.418728,-3.703521,64.91,6.861,14,1.33,2.137,-0.937,246.303,0.3818,0.4705,0.9838,1.889,-0.714,0.985,97.8,21.74,13.839,60.12,-67.1,0,normal
2024-03-15 10:03:26,206,0,cruise,40.41879,-3.703464,64.29,8.856,14,1.26,5.671,-1.05,247.446,0.1496,-0.2766,1.0003,0.358,-0.428,1.016,98.17,21.956,15.42,62.43,-67.6,0,normal
2024-03-15 10:03:27,207,0,cruise,40.418778,-3.703322,64.43,8.902,12,1.31,2.416,-1.479,248.626,-0.2384,0.2493,1.0201,0.253,-0.091,2.502,97.97,21.809,15.136,61.56,-66.3,0,normal
2024-03-15 10:03:28,208,0,cruise,40.418763,-3.703258,64.35,8.646,13,1.32,5.139,-0.948,250.95,-0.1365,-0.0184,1.0274,1.339,-0.882,2.15,97.94,21.853,14.747,61.42,-68.9,0,normal
2024-03-15 10:03:29,209,0,cruise,40.418913,-3.703219,64.14,6.132,12,1.26,6.116,-3.511,250.762,-0.175,-0.8796,0.9994,-1.039,-2.257,0.534,97.88,21.769,12.758,56.34,-72.0,0,normal
2024-03-15 10:03:30,210,0,cruise,40.418731,-3.703123,64.61,9.54,13,1.27,3.514,-3.982,252.468,-0.005,0.0082,1.0077,-0.848,-0.203,1.269,98.0,21.792,15.751,63.05,-70.6,0,normal
2024-03-15 10:03:31,211,0,cruise,40.418739,-3.703181,64.33,6.284,12,1.92,4.345,-2.772,252.965,0.4294,0.2773,0.9819,1.483,0.012,0.743,97.91,21.848,13.059,58.29,-74.2,0,normal
2024-03-15 10:03:32,212,0,cruise,40.418707,-3.70298,64.12,11.441,14,1.38,7.102,-5.091,254.795,-0.155,-0.2393,1.0337,1.427,-0.547,1.936,97.96,21.717,16.939,65.65,-65.0,0,normal
2024-03-15 10:03:33,213,0,cruise,40.418668,-3.70293,63.85,6.955,14,1.56,6.471,-1.859,256.07,-0.2668,0.0277,0.9967,-1.177,1.842,0.855,98.02,21.865,13.473,59.53,-66.1,0,normal
2024-03-15 10:03:34,214,0,cruise,40.418594,-3.702912,63.94,5.655,12,1.21,5.27,-2.023,256.982,-0.1267,0.0926,1.0016,1.227,-1.171,1.027,98.0,21.849,12.791,58.21,-67.3,0,normal
2024-03-15 10:03:35,215,0,cruise,40.41862,-3.702803,63.69,4.557,13,1.2,7.626,-3.827,258.835,-0.2664,-0.1817,0.9919,0.798,-0.863,1.889,98.06,21.807,11.729,56.56,-69.4,0,normal
2024-03-15 10:03:36,216,0,cruise,40.418514,-3.702919,64.16,5.999,13,1.35,7.797,-3.908,258.758,0.3785,0.0974,1.024,0.668,0.818,-0.017,97.99,21.821,12.88,58.1,-67.6,0,normal
2024-03-15 10:03:37,217,0,cruise,40.41851,-3.702808,63.77,7.036,13,1.55,6.831,-3.749,260.156,0.3807,0.1375,1.004,-0.094,0.01,0.248,97.84,21.801,13.563,58.69,-67.3,0,normal
2024-03-15 10:03:38,218,0,cruise,40.418464,-3.702765,64.02,7.663,14,1.39,5.579,-3.757,261.706,-0.1622,0.3354,1.0152,-0.309,0.283,1.909,97.72,21.782,14.084,60.37,-68.7,0,normal
2024-03-15 10:03:39,219,0,cruise,40.418458,-3.70264,64.48,5.395,13,1.39,6.307,-3.808,263.24,-0.1377,-0.331,1.0071,1.425,0.159,1.008,97.95,21.848,12.446,56.96,-68.7,0,normal
2024-03-15 10:03:40,220,0,cruise,40.418534,-3.702677,64.4,10.498,13,1.23,7.284,-3.497,264.09,0.2972,-0.6798,0.9956,0.067,-0.322,0.978,97.95,21.773,16.44,63.91,-63.4,0,normal
2024-03-15 10:03:41,221,0,cruise,40.418287,-3.702536,64.0,12.889,13,1.97,6.842,-4.342,265.843,-0.007,0.2713,1.0186,1.023,-0.034,2.356,98.12,21.981,18.521,68.63,-70.9,0,normal
2024-03-15 10:03:42,222,0,cruise,40.418375,-3.702457,63.96,5.525,14,1.35,8.316,-3.333,266.069,-0.3991,0.0473,1.0069,-0.776,0.556,0.959,97.92,21.797,12.55,56.88,-64.3,0,normal
2024-03-15 10:03:43,223,0,cruise,40.41822,-3.702443,64.52,8.0,12,1.22,5.467,-3.93,267.03,-0.1765,0.3383,0.9808,-1.994,-1.238,1.413,97.97,21.81,14.461,61.37,-72.0,0,normal
2024-03-15 10:03:44,224,0,cruise,40.418234,-3.702417,64.08,2.772,14,1.31,5.614,-5.077,268.954,-0.0351,0.2261,0.9802,-0.639,-0.211,1.112,98.01,21.921,10.354,52.99,-62.4,0,normal
2024-03-15 10:03:45,225,0,cruise,40.418269,-3.702435,63.79,3.583,14,1.21,7.721,-3.221,269.961,0.3905,-0.6902,1.003,0.56,-0.421,1.482,97.98,21.728,10.757,54.22,-74.4,0,normal
2024-03-15 10:03:46,226,0,cruise,40.418172,-3.702384,63.43,13.796,12,1.31,7.002,-5.993,271.471,0.263,-0.2221,1.0181,-0.261,-0.692,0.346,98.01,21.922,19.082,69.07,-65.8,0,normal
2024-03-15 10:03:47,227,0,cruise,40.418069,-3.702237,63.94,10.226,12,1.45,6.92,-4.798,272.386,-0.3931,0.5062,1.0328,-0.025,0.183,0.721,97.85,21.798,16.548,65.35,-69.2,0,normal
2024-03-15 10:03:48,228,0,cruise,40.418039,-3.70222,64.04,0.911,13,1.28,5.622,-3.803,273.43,-0.3416,0.0952,0.9645,0.473,-0.381,1.17,97.83,21.764,8.838,51.2,-67.7,0,normal
2024-03-15 10:03:49,229,0,cruise,40.41806,-3.702222,63.57,5.649,13,1.28,7.83,-5.549,274.763,-0.0974,-0.351,1.0005,1.589,-0.994,1.399,97.9,21.748,12.477,57.05,-67.6,0,normal
2024-03-15 10:03:50,230,0,cruise,40.417939,-3.702203,63.82,6.931,12,1.34,7.797,-4.565,276.014,0.063,0.081,1.0098,0.203,0.902,1.071,97.71,21.705,13.616,59.43,-65.4,0,normal
2024-03-15 10:03:51,231,0,cruise,40.417935,-3.702247,63.59,4.034,13,1.34,8.69,-4.372,277.048,0.6051,-0.0509,1.0059,-0.055,-1.524,0.795,97.92,21.791,11.012,55.49,-73.0,0,normal
2024-03-15 10:03:52,232,0,cruise,40.417874,-3.702165,63.61,13.798,12,1.33,8.025,-5.808,278.298,0.0234,0.1781,1.0202,0.087,0.626,1.636,97.86,21.81,19.143,70.2,-67.3,0,normal
2024-03-15 10:03:53,233,0,cruise,40.417786,-3.701983,62.88,2.381,13,1.35,7.81,-5.045,279.398,-0.6244,0.2807,1.0131,-0.544,0.162,0.639,97.96,21.846,10.283,52.83,-66.7,0,normal
2024-03-15 10:03:54,234,0,cruise,40.417871,-3.702111,63.53,2.729,14,1.21,9.401,-5.146,281.228,0.2597,-0.9075,0.9803,-0.687,-0.685,1.21,97.9,21.817,10.08,53.8,-69.2,0,normal
2024-03-15 10:03:55,235,0,cruise,40.41774,-3.702009,63.85,19.309,13,1.33,6.423,-5.55,282.097,0.0048,-0.2418,0.9797,-0.579,1.083,1.291,97.83,21.764,23.562,78.03,-67.6,0,normal
2024-03-15 10:03:56,236,0,cruise,40.41755,-3.70194,63.33,7.41,12,2.17,8.643,-2.698,284.328,-0.3356,0.774,1.0062,0.462,0.175,1.698,98.06,21.9,13.942,60.18,-69.2,0,normal
2024-03-15 10:03:57,237,0,cruise,40.417604,-3.702027,63.5,2.808,12,1.49,5.986,-5.755,284.48,0.389,0.1237,1.0198,-1.101,-0.192,0.269,97.93,21.944,10.296,53.49,-65.5,0,normal
2024-03-15 10:03:58,238,0,cruise,40.417503,-3.701931,63.22,8.023,14,1.27,6.969,-3.972,285.325,0.0772,-0.2576,1.0029,0.512,0.067,2.046,98.01,21.9,14.414,60.67,-66.1,0,normal
2024-03-15 10:03:59,239,0,cruise,40.41752,-3.701871,63.52,7.006,13,1.43,6.494,-5.347,288.135,-0.046,-0.1999,0.9684,1.403,-1.738,1.608,97.94,21.794,13.842,59.29,-66.6,0,normal
2024-03-15 10:04:00,240,0,cruise,40.417378,-3.701897,63.31,10.927,12,1.28,8.853,-6.01,288.207,-0.1894,0.1698,0.9791,-0.097,-0.323,-0.138,97.97,21.842,16.584,65.02,-65.2,0,normal
2024-03-15 10:04:01,241,0,cruise,40.417352,-3.701736,63.06,3.647,13,1.24,7.793,-4.782,289.695,-0.4339,0.2787,1.0138,-0.595,1.054,1.212,97.79,21.811,11.097,54.89,-63.6,0,normal
2024-03-15 10:04:02,242,0,cruise,40.417323,-3.701946,63.7,4.729,12,1.5,7.804,-4.189,290.696,0.3327,-0.3983,0.993,-0.897,0.953,0.237,98.05,21.913,11.818,56.49,-70.1,0,normal
2024-03-15 10:04:03,243,0,cruise,40.41728,-3.701795,63.54,12.205,13,1.25,6.431,-3.863,291.912,0.1403,-0.3091,1.0024,0.236,1.073,1.362,98.01,21.808,17.418,66.58,-60.6,0,normal
2024-03-15 10:04:04,244,0,cruise,40.417115,-3.701844,63.05,10.076,14,1.59,7.33,-3.159,293.068,-0.1233,0.3262,1.0213,0.47,1.162,0.404,97.92,21.76,16.2,65.42,-66.0,0,normal
2024-03-15 10:04:05,245,0,cruise,40.417096,-3.701786,63.34,5.351,13,1.3,6.696,-1.707,293.449,-0.1574,0.0922,0.976,0.211,-0.099,1.751,97.95,21.87,12.376,57.88,-68.8,0,normal
2024-03-15 10:04:06,246,0,cruise,40.417027,-3.701794,63.31,8.079,13,1.48,7.986,-4.325,295.384,-0.1198,0.1818,0.9917,-0.751,-0.767,1.054,98.02,21.847,14.314,61.04,-60.3,0,normal
2024-03-15 10:04:07,247,0,cruise,40.416956,-3.701846,63.3,0.647,12,1.26,6.242,-5.154,295.738,0.0281,0.1994,0.9895,0.988,0.784,0.679,97.89,21.746,8.581,49.38,-68.4,0,normal
2024-03-15 10:04:08,248,0,cruise,40.417014,-3.701792,62.56,4.362,13,1.41,8.924,-3.946,297.513,0.0181,-0.7142,1.0071,-0.551,0.754,1.95,97.76,21.813,11.248,55.44,-70.9,0,normal
2024-03-15 10:04:09,249,0,cruise,40.416883,-3.701894,63.33,15.284,12,1.25,5.207,-4.567,298.437,0.3433,-0.0854,1.0155,-2.206,-0.065,0.897,97.89,21.893,20.137,72.04,-68.6,0,normal
2024-03-15 10:04:10,250,0,cruise,40.416737,-3.70177,62.82,7.302,12,1.2,6.131,-3.269,300.179,-0.0401,0.8917,0.9704,1.123,0.075,1.912,97.94,21.776,13.938,59.87,-68.9,0,normal
2024-03-15 10:04:11,251,0,cruise,40.416783,-3.701786,62.84,2.325,13,1.54,8.984,-5.38,301.367,-0.1794,-0.0414,0.9999,0.311,1.067,1.465,97.92,21.763,9.523,53.24,-64.0,0,normal
2024-03-15 10:04:12,252,0,cruise,40.416781,-3.701772,63.7,6.663,12,1.59,6.315,-1.596,302.641,-0.0117,-1.0017,1.0174,-2.572,1.524,1.006,98.05,21.834,13.152,58.95,-67.6,0,normal
2024-03-15 10:04:13,253,0,cruise,40.416663,-3.701756,62.96,17.03,14,1.63,5.117,-2.984,303.744,-0.197,-0.2222,0.9629,1.176,-1.268,0.26,97.83,21.824,21.535,73.91,-67.0,0,normal
2024-03-15 10:04:14,254,0,cruise,40.416473,-3.701797,62.71,11.344,13,1.21,6.808,-5.392,304.497,-0.1537,0.909,0.9987,-0.118,-0.469,1.684,97.84,21.788,17.095,65.28,-67.1,0,normal
2024-03-15 10:04:15,255,0,cruise,40.416463,-3.701817,62.13,3.802,14,1.49,5.817,-4.28,305.869,-0.0171,0.1774,0.9757,-0.794,1.339,1.832,97.81,21.844,11.203,55.92,-63.7,0,normal
2024-03-15 10:04:16,256,0,cruise,40.416489,-3.701879,63.16,7.939,13,1.56,5.221,-2.612,307.66,0.3427,-0.5045,0.9872,-0.46,0.553,1.146,97.96,21.829,14.211,60.17,-68.1,0,normal
2024-03-15 10:04:17,257,0,cruise,40.416328,-3.701884,62.3,9.641,12,1.27,4.738,-2.104,308.934,0.3173,0.2804,0.9499,1.624,-1.042,0.806,97.77,21.829,15.673,62.93,-67.8,0,normal
2024-03-15 10:04:18,258,0,cruise,40.416325,-3.701803,62.36,4.258,14,1.33,9.197,-4.399,309.027,-0.3988,-0.0595,1.0279,-0.794,0.031,1.053,97.99,21.785,11.518,54.79,-69.3,0,normal
2024-03-15 10:04:19,259,0,cruise,40.416281,-3.701808,62.52,11.478,14,1.3,5.389,-2.255,310.035,-0.4188,-0.2982,0.9929,-2.908,-0.038,1.361,97.83,21.728,17.226,66.45,-68.5,0,normal
2024-03-15 10:04:20,260,0,cruise,40.416136,-3.70191,63.0,10.046,12,1.32,3.19,-4.752,311.637,0.0438,-0.1444,0.9839,0.477,-0.114,1.963,97.84,21.776,15.945,64.0,-65.6,0,normal
2024-03-15 10:04:21,261,0,cruise,40.41612,-3.701916,62.77,13.307,13,1.58,7.096,-2.726,313.723,0.2427,0.011,1.0066,1.381,2.179,2.201,98.1,21.773,19.031,69.26,-65.0,0,normal
2024-03-15 10:04:22,262,0,cruise,40.415902,-3.701986,62.44,9.335,13,1.31,5.834,-1.353,315.007,0.2145,0.7679,0.9792,-1.623,0.376,1.476,98.04,21.851,15.568,63.39,-62.1,0,normal
2024-03-15 10:04:23,263,0,cruise,40.415954,-3.701906,62.54,2.232,13,1.27,3.973,-2.841,315.138,-0.077,0.0833,0.9773,-1.006,-1.163,0.913,97.93,21.709,9.82,53.0,-67.6,0,normal
2024-03-15 10:04:24,264,0,cruise,40.415936,-3.701957,62.22,6.886,13,1.23,3.56,-3.617,316.954,-0.3663,-0.1352,1.0302,1.429,0.107,1.221,97.79,21.76,13.522,59.16,-68.1,0,normal
2024-03-15 10:04:25,265,0,cruise,40.41583,-3.701921,62.4,5.707,14,1.42,5.269,-1.78,318.917,-0.3355,0.0056,1.0362,-0.083,0.827,0.576,98.12,21.831,12.876,57.78,-66.2,0,normal
2024-03-15 10:04:26,266,0,cruise,40.415918,-3.702091,62.34,9.795,12,1.22,3.94,-2.345,319.408,0.3046,-0.5776,0.9882,-2.02,1.552,0.751,97.9,21.751,15.981,62.91,-68.5,0,normal
2024-03-15 10:04:27,267,0,cruise,40.41571,-3.702097,62.56,11.792,12,1.21,1.697,-0.922,321.111,0.3615,0.2595,1.0213,0.157,0.21,0.878,97.94,21.796,17.15,65.78,-69.2,0,normal
2024-03-15 10:04:28,268,0,cruise,40.415706,-3.7021,62.52,1.458,14,1.43,5.92,-2.246,322.099,-0.1564,0.5796,1.0071,0.563,-0.657,-0.224,98.01,21.824,9.049,50.63,-66.3,0,normal
2024-03-15 10:04:29,269,0,cruise,40.415682,-3.702114,62.33,3.977,12,1.44,3.017,-1.94,322.345,-0.2693,-0.425,0.9717,-0.209,-0.105,1.827,97.72,21.833,11.177,55.2,-68.4,0,normal
2024-03-15 10:04:30,270,0,cruise,40.415696,-3.702193,62.03,11.78,12,1.24,5.092,-2.993,323.905,0.1696,-0.2933,0.9814,0.543,0.965,1.7,97.85,21.743,17.478,66.38,-68.0,0,normal
2024-03-15 10:04:31,271,0,cruise,40.415502,-3.702263,62.31,6.55,12,1.83,4.586,-0.605,325.217,0.316,0.4314,1.031,-1.536,1.42,1.012,97.91,21.823,13.458,59.02,-65.4,0,normal
2024-03-15 10:04:32,272,0,cruise,40.415583,-3.702215,62.02,1.171,14,1.51,1.603,-0.737,326.452,-0.3229,-0.1994,0.9715,-0.486,0.206,1.404,97.93,21.837,8.809,51.38,-66.3,0,normal
2024-03-15 10:04:33,273,0,cruise,40.415478,-3.702264,61.68,13.242,14,1.43,3.793,-1.566,328.058,-0.1249,-0.149,1.0456,-0.694,0.57,0.383,97.78,21.781,18.714,68.19,-61.2,0,normal
2024-03-15 10:04:34,274,0,cruise,40.415382,-3.702388,61.83,4.44,12,1.48,1.517,0.016,329.004,0.4027,0.501,0.9886,-1.839,1.97,0.816,97.95,21.788,11.926,55.54,-64.5,0,normal
2024-03-15 10:04:35,275,0,cruise,40.415409,-3.702318,61.93,1.754,14,1.31,-0.198,1.049,328.532,-0.2111,-0.1972,1.0316,-0.225,0.11,-0.205,97.92,21.75,9.504,51.99,-69.6,0,normal
2024-03-15 10:04:36,276,0,cruise,40.415352,-3.702372,62.14,9.993,14,1.32,1.274,0.006,330.544,-0.3405,-0.1854,0.9939,1.16,0.577,1.642,98.08,21.933,15.874,63.2,-68.5,0,normal
2024-03-15 10:04:37,277,0,cruise,40.41527,-3.702471,61.76,8.007,14,1.61,1.999,0.69,331.306,0.1744,0.1956,1.016,-0.568,1.047,0.653,98.01,21.829,14.187,60.6,-71.4,0,normal
2024-03-15 10:04:38,278,0,cruise,40.415262,-3.702521,61.41,4.875,13,1.21,0.704,0.894,333.688,0.002,0.0136,1.0279,-1.014,-0.077,1.6,97.89,21.785,11.887,55.94,-70.1,0,normal
2024-03-15 10:04:39,279,0,cruise,40.4152,-3.702546,61.74,7.49,14,1.52,0.627,-0.386,334.92,-0.1113,0.1229,1.0278,0.778,1.483,1.848,97.89,21.909,13.859,60.16,-63.5,0,normal
2024-03-15 10:04:40,280,0,cruise,40.415188,-3.702668,61.71,5.314,13,1.32,2.103,3.072,336.142,-0.0391,0.2183,0.9883,-0.133,1.713,0.083,98.01,21.836,12.207,56.49,-68.0,0,normal
2024-03-15 10:04:41,281,0,cruise,40.415179,-3.702674,61.68,7.138,12,1.32,0.592,0.739,336.721,0.1518,-0.4278,0.9829,-0.596,0.032,1.223,97.94,21.939,13.87,59.47,-71.3,0,normal
2024-03-15 10:04:42,282,0,cruise,40.415191,-3.702836,61.86,9.309,12,1.28,-0.814,2.059,338.737,0.1637,-0.1015,0.9984,0.49,0.387,1.933,97.77,21.709,15.46,63.14,-72.9,0,normal
2024-03-15 10:04:43,283,0,cruise,40.415017,-3.702738,61.84,3.999,12,1.39,0.774,2.363,339.958,-0.0539,0.1669,0.974,0.63,-0.085,0.95,98.12,21.834,11.181,55.1,-71.7,0,normal
2024-03-15 10:04:44,284,0,cruise,40.415154,-3.702915,61.31,6.455,14,1.43,-0.098,1.642,340.172,0.0831,-0.4084,1.0048,-2.289,-0.027,0.69,97.81,21.719,12.82,57.48,-69.5,0,normal
2024-03-15 10:04:45,285,0,cruise,40.41492,-3.702817,61.25,9.671,13,1.24,-3.627,2.574,341.267,-0.2619,0.4566,0.9836,-1.14,1.409,1.762,98.16,21.847,15.953,63.24,-67.3,0,normal
2024-03-15 10:04:46,286,0,cruise,40.414983,-3.702965,61.08,9.517,14,1.37,-0.353,2.396,343.2,-0.1809,0.4464,1.0217,1.079,-0.206,1.709,97.95,21.807,15.608,62.91,-68.4,0,normal
2024-03-15 10:04:47,287,0,cruise,40.414994,-3.703016,61.55,5.702,12,1.33,-0.661,0.911,345.296,0.1649,-0.5475,0.9886,-0.833,0.904,2.591,97.85,21.771,12.618,57.14,-65.1,0,normal
2024-03-15 10:04:48,288,0,cruise,40.414954,-3.703095,61.73,7.712,13,1.5,-1.37,2.171,346.45,0.2416,-0.1005,0.9652,-0.1,0.196,0.088,97.67,21.764,14.092,60.22,-70.0,0,normal
2024-03-15 10:04:49,289,0,cruise,40.414887,-3.703137,61.15,3.939,14,1.36,-0.586,2.062,347.082,-0.2239,0.1947,1.028,-0.693,0.655,1.174,97.99,21.8,11.154,54.95,-63.6,0,normal
2024-03-15 10:04:50,290,0,cruise,40.414887,-3.703111,61.12,9.94,14,1.31,-2.723,2.38,347.635,-0.2637,0.0293,1.0037,-0.264,-0.863,1.376,97.75,21.771,15.847,63.07,-67.7,0,normal
2024-03-15 10:04:51,291,0,cruise,40.414855,-3.703366,61.59,6.185,12,1.35,-1.77,1.7,349.643,0.5385,0.2043,1.0006,-0.657,0.158,1.578,97.94,21.774,12.683,58.15,-65.8,0,normal
2024-03-15 10:04:52,292,0,cruise,40.414833,-3.703239,61.25,2.219,14,1.33,-4.31,4.288,350.174,-0.2523,0.2196,1.0219,0.368,1.409,1.184,98.1,21.914,9.659,51.88,-68.8,0,normal
2024-03-15 10:04:53,293,0,cruise,40.414891,-3.703347,61.18,10.544,14,1.75,-2.194,4.916,351.216,-0.4536,-0.3983,1.0174,1.705,0.832,1.055,97.79,21.728,16.485,65.3,-64.1,0,normal
2024-03-15 10:04:54,294,0,cruise,40.414853,-3.703486,60.64,9.923,12,1.27,-0.588,4.439,351.728,0.5809,-0.0622,0.9848,-0.961,-0.518,1.012,97.98,21.83,16.044,63.77,-71.2,0,normal
2024-03-15 10:04:55,295,0,cruise,40.41479,-3.703541,61.16,0.813,13,1.21,-4.372,4.873,354.051,0.1743,0.3925,0.991,-1.7,-0.531,1.435,97.83,21.73,8.541,50.04,-71.0,0,normal
2024-03-15 10:04:56,296,0,cruise,40.414861,-3.703466,60.62,5.326,14,1.42,-4.333,3.393,354.885,-0.6306,-0.0555,0.9777,0.053,-0.226,0.473,98.02,21.785,12.087,57.03,-70.1,0,normal
2024-03-15 10:04:57,297,0,cruise,40.414824,-3.703659,60.51,11.394,12,1.39,-4.512,3.231,356.448,0.1905,-0.079,0.9707,0.938,0.333,0.633,97.91,21.77,17.132,65.85,-63.7,0,normal
2024-03-15 10:04:58,298,0,cruise,40.414845,-3.703732,60.7,0.997,14,1.68,-3.739,3.213,356.45,0.5148,-0.188,1.0116,-0.043,1.869,1.38,97.91,21.798,8.988,51.56,-67.9,0,normal
2024-03-15 10:04:59,299,0,cruise,40.414832,-3.70368,60.58,5.313,13,1.22,-5.402,4.753,358.885,-0.4556,-0.1997,1.0078,-0.713,0.618,-178.529,98.03,21.837,12.086,55.76,-70.0,0,normal
2024-03-15 10:05:00,300,0,cruise,40.414759,-3.703783,60.64,10.301,13,1.35,-3.847,4.446,358.784,-0.178,0.459,1.0152,0.865,-0.474,-178.375,97.97,21.761,16.289,64.58,-67.9,0,normal
2024-03-15 10:05:01,301,0,cruise,40.414773,-3.70391,60.22,7.127,12,1.23,-3.557,4.246,1.744,0.2287,0.3548,1.0256,-0.158,0.087,1.061,97.83,21.769,13.647,59.3,-66.7,0,normal
2024-03-15 10:05:02,302,0,cruise,40.414841,-3.703915,60.89,6.481,12,1.32,-4.148,5.715,2.661,0.1416,-0.2977,1.0155,-0.707,0.151,0.577,98.08,21.789,13.457,59.24,-70.4,0,normal
2024-03-15 10:05:03,303,0,cruise,40.414839,-3.70404,60.9,3.713,14,1.52,-7.123,4.915,3.461,0.2256,-0.206,1.0173,-0.097,-1.532,0.879,97.75,21.724,10.921,54.61,-66.7,0,normal
2024-03-15 10:05:04,304,0,cruise,40.414815,-3.703996,59.92,0.939,12,1.59,-4.012,3.754,5.081,-0.1748,0.3233,0.9584,0.93,-1.362,0.37,97.93,21.867,9.008,51.89,-67.6,0,normal
2024-03-15 10:05:05,305,0,cruise,40.41483,-3.70406,60.75,8.011,12,1.56,-4.281,3.987,5.511,-0.3231,-0.0237,0.9939,-0.076,1.814,0.659,97.82,21.72,14.63,60.4,-68.7,0,normal
2024-03-15 10:05:06,306,0,cruise,40.414899,-3.704148,60.16,6.673,12,1.36,-4.603,5.418,7.236,0.2292,-0.2323,1.0193,-0.281,0.95,1.644,97.76,21.78,13.705,60.48,-70.9,0,normal
2024-03-15 10:05:07,307,0,cruise,40.414819,-3.704218,60.61,2.579,14,1.4,-5.339,5.838,8.797,0.0194,0.1695,0.9766,-0.587,1.287,1.115,97.79,21.868,9.862,53.11,-64.6,0,normal
2024-03-15 10:05:08,308,0,cruise,40.41489,-3.704209,60.29,6.659,12,1.36,-5.703,5.401,8.053,-0.4469,0.0143,1.0018,0.108,0.057,0.413,97.9,21.864,13.053,58.57,-68.6,0,normal
2024-03-15 10:05:09,309,0,cruise,40.414869,-3.704358,60.27,11.365,13,1.36,-4.903,6.791,10.576,0.0729,0.1234,1.0104,1.326,0.368,1.403,97.94,21.832,17.356,65.52,-76.0,0,normal
2024-03-15 10:05:10,310,0,cruise,40.414887,-3.704477,60.15,6.991,12,1.63,-4.001,6.566,11.989,0.647,0.2719,1.0089,-1.782,-1.082,0.963,98.01,21.824,13.819,59.04,-66.2,0,normal
2024-03-15 10:05:11,311,0,cruise,40.414973,-3.704455,60.52,5.576,14,1.25,-7.613,5.401,13.102,-0.2068,-0.1919,1.0074,-0.835,-1.532,1.739,98.05,21.869,12.359,56.97,-66.0,0,normal
2024-03-15 10:05:12,312,0,cruise,40.414982,-3.704432,59.74,8.383,14,1.32,-5.329,4.143,15.129,-0.6297,-0.0434,1.012,0.109,-0.421,1.58,97.93,21.828,14.095,60.69,-64.3,0,normal
2024-03-15 10:05:13,313,0,cruise,40.415005,-3.704645,60.24,10.898,13,1.39,-6.872,3.685,15.038,0.3056,-0.0198,1.0036,-0.32,0.518,0.637,97.86,21.867,16.746,65.14,-66.0,0,normal
2024-03-15 10:05:14,314,0,cruise,40.415056,-3.70467,60.34,2.002,13,1.49,-7.062,4.613,16.489,0.3449,-0.1249,0.9707,-0.862,1.471,0.279,98.01,21.817,9.386,52.18,-66.7,0,normal
2024-03-15 10:05:15,315,0,cruise,40.415019,-3.704687,60.17,4.26,14,1.49,-8.881,5.75,17.042,-0.2894,0.0903,1.0101,-0.752,1.771,1.116,97.84,21.843,11.273,54.56,-68.7,0,normal
2024-03-15 10:05:16,316,0,cruise,40.415081,-3.704766,60.61,8.11,14,1.22,-7.502,6.813,19.955,0.1206,0.048,1.0057,-0.278,0.371,1.712,97.74,21.758,14.541,61.2,-68.6,0,normal
2024-03-15 10:05:17,317,0,cruise,40.415063,-3.704867,59.7,3.527,14,1.25,-8.472,5.385,20.277,0.5329,0.0779,0.971,0.718,-0.856,1.21,98.0,21.916,10.972,55.3,-65.2,0,normal
2024-03-15 10:05:18,318,0,cruise,40.415128,-3.704816,60.1,4.826,14,1.68,-7.939,6.11,21.381,-0.2198,0.0566,1.0276,0.378,-0.624,2.156,98.03,21.821,12.259,57.79,-67.6,0,normal
2024-03-15 10:05:19,319,0,cruise,40.415139,-3.704808,59.73,7.04,13,1.29,-8.799,4.661,22.774,-0.704,0.1142,1.0107,0.335,-0.251,0.877,97.82,21.707,13.59,58.83,-71.5,0,normal
2024-03-15 10:05:20,320,0,cruise,40.415187,-3.704966,60.08,12.711,14,1.2,-8.11,5.487,24.318,-0.0735,-0.1005,0.9724,0.335,2.352,1.37,98.1,21.845,18.056,67.32,-68.2,0,normal
2024-03-15 10:05:21,321,0,cruise,40.415249,-3.705071,59.66,8.179,13,1.24,-8.14,5.637,25.374,0.4875,0.1408,0.9837,1.004,-0.969,1.188,97.96,21.853,14.775,61.43,-67.4,0,normal
2024-03-15 10:05:22,322,0,cruise,40.415218,-3.705152,59.49,8.711,14,1.9,-7.61,2.777,27.724,0.4744,0.1326,0.9887,-1.346,-0.627,0.777,97.94,21.893,15.078,61.83,-73.3,0,normal
2024-03-15 10:05:23,323,0,cruise,40.415404,-3.70511,59.95,4.281,13,1.27,-9.729,4.277,27.827,-0.0882,-0.6822,0.9887,-0.609,1.732,-0.07,97.85,21.744,11.386,55.95,-64.9,0,normal
2024-03-15 10:05:24,324,0,cruise,40.415292,-3.705114,59.36,5.55,14,1.39,-9.582,5.567,28.567,-0.4084,0.3583,1.0059,0.913,-0.034,0.779,98.0,21.736,12.464,58.87,-67.2,0,normal
2024-03-15 10:05:25,325,0,cruise,40.415325,-3.70519,59.04,12.547,12,1.46,-7.461,4.812,29.719,-0.1298,0.743,0.9805,0.221,-1.026,0.777,97.75,21.8,18.021,66.88,-71.3,0,normal
2024-03-15 10:05:26,326,0,cruise,40.415489,-3.705258,59.25,12.095,14,1.41,-8.891,3.253,31.004,0.0075,-0.4134,1.0226,0.756,-0.966,2.204,97.86,21.82,17.882,67.4,-68.1,0,normal
2024-03-15 10:05:27,327,0,cruise,40.415517,-3.70533,59.55,6.984,13,1.29,-6.674,1.925,31.649,0.2561,-0.294,1.0209,0.516,0.303,1.078,97.83,21.719,13.987,60.32,-67.5,0,normal
2024-03-15 10:05:28,328,0,cruise,40.415556,-3.705396,59.73,5.03,14,1.31,-7.714,3.887,33.62,0.3004,0.0049,1.0124,-0.515,0.696,2.265,97.77,21.762,11.916,56.61,-64.4,0,normal
2024-03-15 10:05:29,329,0,cruise,40.415606,-3.705339,59.29,3.881,14,1.56,-7.269,4.073,35.192,-0.4162,-0.1806,1.0009,0.456,-0.41,0.707,97.98,21.805,11.192,55.81,-64.4,0,normal
2024-03-15 10:05:30,330,0,cruise,40.415624,-3.705372,59.61,8.29,12,1.42,-6.307,3.145,35.693,-0.0937,0.1724,1.0187,-1.542,-0.171,1.919,97.93,21.851,14.382,61.07,-63.9,0,normal
2024-03-15 10:05:31,331,0,cruise,40.415631,-3.705531,58.75,6.27,14,1.2,-8.366,4.051,36.796,0.4939,0.266,0.9945,-0.799,-0.108,1.902,97.98,21.798,12.818,57.0,-66.2,0,normal
2024-03-15 10:05:32,332,0,cruise,40.415732,-3.705409,58.98,6.59,12,1.25,-8.669,4.286,39.158,-0.0636,0.1291,0.9855,0.224,-0.153,1.464,97.87,21.776,13.428,58.45,-69.1,0,normal
2024-03-15 10:05:33,333,0,cruise,40.415748,-3.705493,58.98,8.922,14,1.27,-6.91,4.317,38.887,-0.4637,0.0636,1.0238,1.607,-2.264,0.009,98.0,21.827,15.195,61.82,-69.9,0,normal
2024-03-15 10:05:34,334,0,cruise,40.415885,-3.705483,58.98,10.018,12,1.29,-7.313,1.15,39.766,-0.2833,-0.3784,1.0064,-0.743,-1.753,1.757,97.9,21.736,15.812,63.09,-69.2,0,normal
2024-03-15 10:05:35,335,0,cruise,40.415885,-3.705649,58.99,8.316,12,1.37,-8.108,2.047,41.424,0.3239,-0.0705,0.9863,1.229,0.307,1.499,97.85,21.889,14.695,61.38,-67.5,0,normal
2024-03-15 10:05:36,336,0,cruise,40.415907,-3.705678,59.12,5.727,12,1.29,-6.164,2.906,42.43,0.5118,0.4447,0.9916,-0.865,1.267,1.395,97.83,21.838,12.783,57.9,-67.4,0,normal
2024-03-15 10:05:37,337,0,cruise,40.41599,-3.705643,58.73,10.151,14,1.55,-8.03,3.627,44.593,0.1453,0.0056,0.9853,-0.387,0.983,0.955,97.7,21.73,15.875,62.66,-64.1,0,normal
2024-03-15 10:05:38,338,0,cruise,40.416084,-3.705634,58.86,6.395,12,1.33,-7.669,3.383,45.42,-0.1548,-0.3527,1.0404,0.706,-0.981,0.93,98.01,21.769,13.586,58.65,-67.9,0,normal
2024-03-15 10:05:39,339,0,cruise,40.416094,-3.705592,58.76,3.374,14,1.34,-7.607,3.2,46.69,-0.3803,0.1241,1.0001,0.151,0.186,1.417,98.0,21.771,10.814,53.41,-73.2,0,normal
2024-03-15 10:05:40,340,0,cruise,40.416141,-3.705667,58.44,10.67,13,1.31,-8.67,2.175,48.576,-0.1979,0.3211,1.0032,-0.642,-1.135,1.517,98.19,21.887,16.664,64.22,-70.8,0,normal
2024-03-15 10:05:41,341,0,cruise,40.416254,-3.705733,58.64,10.894,14,1.27,-7.362,2.057,48.854,0.4229,-0.2076,1.0144,1.144,0.025,0.989,97.86,21.746,16.758,65.66,-70.2,0,normal
2024-03-15 10:05:42,342,0,cruise,40.416315,-3.705788,58.58,5.097,14,1.46,-5.679,1.479,50.788,0.2517,-0.2545,0.9757,0.614,0.498,0.79,97.83,21.777,12.5,57.37,-70.2,0,normal
2024-03-15 10:05:43,343,0,cruise,40.416338,-3.70569,58.53,5.038,13,1.25,-6.712,2.794,52.356,-0.1016,0.2205,1.0219,-0.632,0.039,1.215,97.72,21.686,12.289,56.64,-75.6,0,normal
