timestamp,time_s,mission_id,mission_phase,lat,lon,alt_m,speed_ms,gps_satellites,hdop,roll_deg,pitch_deg,yaw_deg,acc_x_g,acc_y_g,acc_z_g,gyro_x_dps,gyro_y_dps,gyro_z_dps,battery_pct,voltage_v,current_a,motor_temp_c,rssi_dbm,anomaly,anomaly_type
2024-03-15 10:00:00,0,0,takeoff,40.418825,-3.703895,-0.33,10444,12,2.38,918,6175,359928,-0.0798,0.3757,0.9843,-354,-3317,1539,98.04,21806,16612,65.21,-63.4,0,normal
2024-03-15 10:00:01,1,0,takeoff,40.418792,-3.70378,0.31,8412,12,1.24,1555,3117,1184,0.0696,0.3819,1.0233,-421,-408,1172,98.02,21869,14643,60.99,-72.0,0,normal
2024-03-15 10:00:02,2,0,takeoff,40.418828,-3.703695,0.72,11956,11,1.41,1131,4656,2432,-0.0639,-0.1392,1.0157,-1837,714,1647,98.01,21812,17851,67.0,-74.9,0,normal
2024-03-15 10:00:03,3,0,takeoff,40.418867,-3.703517,1.34,7.92,12,2.25,-1532,4922,4073,-0.6569,-0.4663,0.9996,-52,-16,1173,97.87,21799,14325,60.68,-65.1,0,normal
2024-03-15 10:00:04,4,0,takeoff,40.418773,-3.703522,1.94,6007,13,1.4,877,4952,4426,-107,339,1.0029,1248,-243,497,97.9,21799,12985,58.37,-68.2,0,normal
2024-03-15 10:00:05,5,0,takeoff,40.418764,-3.703554,2.75,6415,11,1.32,-0.06,5081,5577,0.3303,0.3532,0.9998,582,-157,1518,98.07,21792,12979,58.44,-62.0,0,normal
2024-03-15 10:00:06,6,0,takeoff,40.418844,-3.703401,2.9,4829,12,1.34,1346,5467,7818,0.0879,-543,1.0097,953,22,1596,98.05,21824,11499,55.05,-64.2,0,normal
2024-03-15 10:00:07,7,0,takeoff,40.41879,-3.703441,3.02,9558,11,1.57,3026,4.77,8169,0.1169,-0.1838,984,378,-303,1481,98.04,21806,15364,62.81,-65.5,0,normal
2024-03-15 10:00:08,8,0,takeoff,40.418714,-3.703248,4.34,7756,11,1.76,2474,4378,8968,-202,0.2814,1.0173,396,-135,1798,97.94,21776,14757,61.39,-68.7,0,normal
2024-03-15 10:00:09,9,0,takeoff,40.418748,-3.703266,4.25,3386,11,1.32,3742,4272,10557,0.1137,-0.1138,1.0071,146,-0.5,869,98.07,21784,10.61,54.64,-65.2,0,normal
2024-03-15 10:00:10,10,0,takeoff,40.418679,-3.703187,4.98,10.24,13,1.5,3028,3994,11835,-0.0026,0.0725,0.9947,-1351,419,1147,97.96,21.81,16427,64.98,-68.4,0,normal
2024-03-15 10:00:11,11,0,takeoff,40.418658,-3.703056,5.63,2676,11,1.74,1.31,5311,13977,-0.4973,-0.0762,0.9902,-2.33,695,1246,98.13,21877,9.91,53.5,-67.0,0,normal
2024-03-15 10:00:12,12,0,takeoff,40.418672,-3.703128,6.06,6773,12,1.27,0.09,3788,14862,0.1798,-392,1.0168,537,-773,1148,97.92,21864,13505,58.84,-68.2,0,normal
2024-03-15 10:00:13,13,0,takeoff,40.41854,-3.703076,6.83,10329,12,1.34,3538,5186,16174,0.5604,0.3566,997,1425,1176,1198,97.94,21742,16342,65.06,-66.3,0,normal
2024-03-15 10:00:14,14,0,takeoff,40.418523,-3.702978,7.14,9989,12,2.28,3343,4255,17.21,-0.1637,0.3635,986,-1984,-0.74,1.77,97.98,21899,16601,64.93,-67.9,0,normal
2024-03-15 10:00:15,15,0,takeoff,40.418554,-3.70284,7.24,2964,11,1.29,2663,3605,18473,-0.6713,-0.0619,0.9923,-338,97,1471,98.08,21852,10.33,53.94,-64.2,0,normal
2024-03-15 10:00:16,16,0,takeoff,40.418502,-3.702912,8.65,3587,12,1.39,2026,4629,18856,203,-0.1117,1.0154,-311,254,917,97.99,21765,10773,54.73,-65.8,0,normal
2024-03-15 10:00:17,17,0,takeoff,40.418537,-3.702924,8.56,7392,11,1.41,3413,3.16,20301,782,-0.3827,0.9678,1472,-1149,1011,98.0,21802,14081,60.57,-68.7,0,normal
2024-03-15 10:00:18,18,0,takeoff,40.418443,-3.702751,8.96,14428,11,1.23,4284,4397,21105,0.0873,0.3049,0.9929,1.36,1028,1455,97.95,21.72,19378,69.34,-68.5,0,normal
2024-03-15 10:00:19,19,0,takeoff,40.418384,-3.702648,9.79,8209,11,1.53,5534,3837,22695,-0.4632,0.3862,1.0214,173,174,2.15,98.02,21745,14713,61.96,-71.0,0,normal
2024-03-15 10:00:20,20,0,takeoff,40.418491,-3.702564,10.07,2298,12,1.31,5173,2887,24342,-0.3781,-0.5357,0.9966,1275,559,1562,97.99,21906,9838,52.88,-73.2,0,normal
2024-03-15 10:00:21,21,0,takeoff,40.418369,-3.702597,10.62,8.37,11,1.34,7083,3866,25267,0.2229,-0.3672,1.0055,-159,-629,1141,97.91,21772,14562,60.47,-64.4,0,normal
2024-03-15 10:00:22,22,0,takeoff,40.418344,-3.702546,11.75,10747,13,1.41,4112,3732,27056,0.0116,0.1203,1.0217,-393,542,575,98.01,21.85,16761,64.93,-68.3,0,normal
2024-03-15 10:00:23,23,0,takeoff,40.418229,-3.70242,11.42,6368,13,1.31,6607,4187,27029,-0.3365,381,1.0178,631,874,442,98.01,21818,13169,58.1,-70.9,0,normal
2024-03-15 10:00:24,24,0,takeoff,40.418231,-3.702524,11.9,888,11,1.28,5796,3834,29.05,0.3465,-0.0342,0.9912,623,274,1.27,98.23,21866,8889,50.29,-65.8,0,normal
2024-03-15 10:00:25,25,0,takeoff,40.41822,-3.702405,12.53,10491,12,1.36,6755,3193,29376,0.2448,-0.1608,0.9974,5,-1919,1.41,97.93,21828,16731,65.54,-69.4,0,normal
2024-03-15 10:00:26,26,0,takeoff,40.418112,-3.702333,13.32,6967,11,1.29,5574,1404,31247,-0.3158,0.1511,1.0181,921,1314,2065,97.91,21701,13527,58.61,-67.4,0,normal
2024-03-15 10:00:27,27,0,takeoff,40.418141,-3.702277,13.05,4177,11,1.31,7553,4805,32.77,-146,-0.1605,1.0188,-0.59,583,1699,98.02,21892,11316,54.71,-71.1,0,normal
2024-03-15 10:00:28,28,0,takeoff,40.418045,-3.702284,13.41,7599,13,1.22,6783,775,33493,-0.1621,-0.0698,0.9982,-843,-915,1893,97.89,21797,13815,60.86,-65.2,0,normal
2024-03-15 10:00:29,29,0,takeoff,40.418011,-3.702218,14.32,5472,12,1.57,5769,2946,35076,-0.0177,0.3922,0.9989,-822,8,326,97.88,21775,12485,57.25,-66.9,0,normal
2024-03-15 10:00:30,30,0,takeoff,40.417945,-3.702306,14.51,1775,12,1.31,6717,2243,35.52,0.5205,0.0345,1.0054,395,-834,849,97.85,21817,9307,52.08,-65.6,0,normal
2024-03-15 10:00:31,31,0,takeoff,40.418017,-3.702179,15.37,9929,11,1.22,6585,0.45,36368,0.0081,-0.7349,1.0273,794,0.06,1799,97.91,21.77,16094,64.53,-68.5,0,normal
2024-03-15 10:00:32,32,0,takeoff,40.417871,-3.702089,16.15,14.17,12,1.51,7592,1309,38679,-0.3564,0.0286,1.0214,434,287,2015,97.91,21817,19633,70.73,-66.5,0,normal
2024-03-15 10:00:33,33,0,takeoff,40.417765,-3.702128,16.23,3978,11,1.2,5714,1162,40472,0.1494,0.3324,1.0139,-659,-74,398,97.86,21788,11087,55.03,-71.5,0,normal
2024-03-15 10:00:34,34,0,takeoff,40.417805,-3.702044,16.57,8699,11,1.38,7211,2352,40302,0.01,-0.2132,0.9784,795,-22,1792,97.96,21851,14929,61.85,-60.4,0,normal
2024-03-15 10:00:35,35,0,takeoff,40.417647,-3.701996,17.52,8002,13,1.44,7.83,137,42611,-0.1796,-88,0.9945,94,-1365,1166,97.75,21765,14621,61.59,-66.0,0,normal
2024-03-15 10:00:36,36,0,takeoff,40.417662,-3.702007,18.26,8.37,12,1.24,7496,0.39,43222,-0.0112,-0.1632,0.9956,0.18,-811,-536,98.04,21778,14851,61.62,-62.1,0,normal
2024-03-15 10:00:37,37,0,takeoff,40.417496,-3.701956,17.99,10709,12,1.23,9165,-1883,43732,-0.0297,0.4044,1.0284,1022,1578,916,97.93,21828,16772,65.54,-68.0,0,normal
2024-03-15 10:00:38,38,0,takeoff,40.41747,-3.701989,19.25,1356,13,1.22,8562,1989,45034,0.2111,0.4995,0.9952,-768,-396,1419,97.95,21799,9021,51.11,-70.3,0,normal
2024-03-15 10:00:39,39,0,takeoff,40.417487,-3.701929,19.75,5158,12,2.2,7699,-1016,46808,0.0656,-0.3387,1.0251,-202,-0.45,2311,98.05,21.74,11914,56.37,-68.7,0,normal
2024-03-15 10:00:40,40,0,takeoff,40.417455,-3.701867,20.29,7171,11,1.48,8036,181,47798,-317,-0.3999,0.9886,555,181,1113,98.02,21837,13628,60.47,-67.4,0,normal
2024-03-15 10:00:41,41,0,takeoff,40.417367,-3.701872,20.87,8861,12,1.27,8189,-447,48544,-0.0614,-0.0524,0.9902,0.13,-502,725,97.92,21781,14917,61.61,-67.6,0,normal
2024-03-15 10:00:42,42,0,takeoff,40.417292,-3.701892,21.66,8033,12,1.28,8368,-643,49553,0.2422,-83,1.0096,-1636,514,1218,98.03,21846,14571,61.24,-61.6,0,normal
2024-03-15 10:00:43,43,0,takeoff,40.417221,-3.701837,21.39,11377,12,1.41,5734,67,51177,-0.2768,-0.0013,1.0314,-418,301,1568,98.14,21807,17253,66.27,-69.8,0,normal
2024-03-15 10:00:44,44,0,takeoff,40.417101,-3.7018,22.03,8824,11,1.32,7595,731,52897,-0.1327,0.3457,0.9958,-196,-1063,2519,97.88,21741,14952,62.16,-69.1,0,normal
2024-03-15 10:00:45,45,0,takeoff,40.417077,-3.701927,22.38,4232,12,1.26,6199,-885,53997,0.4274,0.3018,0.9487,1021,-1595,1364,98.06,21893,11454,55.76,-65.0,0,normal
2024-03-15 10:00:46,46,0,takeoff,40.417028,-3.701758,23.0,4662,11,1.21,9528,-675,54949,-0.1452,-0.0715,0.9687,1363,462,548,97.87,21841,11919,55.83,-72.0,0,normal
2024-03-15 10:00:47,47,0,takeoff,40.417041,-3.701826,23.96,4715,13,1.51,7927,-1193,56501,-0.0426,-0.6399,1006,-1469,-195,1463,98.1,21842,11726,56.19,-67.3,0,normal
2024-03-15 10:00:48,48,0,takeoff,40.416943,-3.701783,23.6,15137,11,1.64,7765,-693,58.12,-0.1541,-0.1337,0.9705,-199,-299,1236,97.91,21828,20082,71.27,-66.8,0,normal
2024-03-15 10:00:49,49,0,takeoff,40.416775,-3.701741,24.24,7848,13,1.25,9061,-2.36,58997,-0.4118,0.5828,0.9827,377,-399,356,97.91,21846,14726,62.08,-66.0,0,normal
2024-03-15 10:00:50,50,0,takeoff,40.416816,-3.701869,25.41,5132,13,1.21,8.47,-1005,59939,0.3327,-0.1091,1.0002,-1625,24,442,98.1,21841,11997,56.96,-66.1,0,normal
2024-03-15 10:00:51,51,0,takeoff,40.416718,-3.701836,25.81,9931,11,1.23,6579,-1.15,61664,0.1683,-0.0557,951,-314,151,1288,98.06,21773,16225,64.81,-61.2,0,normal
2024-03-15 10:00:52,52,0,takeoff,40.416641,-3.701818,25.89,4341,11,1.31,7809,-1355,61.92,0.0967,383,0.9924,593,-896,509,97.92,21822,11574,55.33,-69.9,0,normal
2024-03-15 10:00:53,53,0,takeoff,40.416642,-3.701848,26.76,4418,13,1.27,7445,-3.27,63488,-0.0136,-0.0831,0.9767,-2128,-914,2014,98.0,21872,11.3,54.84,-69.1,0,normal
2024-03-15 10:00:54,54,0,takeoff,40.416601,-3.701729,27.1,6108,13,1.22,5697,-2947,64699,-0.5383,-0.4911,0.97,71,435,951,97.91,21836,12841,58.28,-65.5,0,normal
2024-03-15 10:00:55,55,0,takeoff,40.416534,-3.701867,27.95,13.42,12,1.32,6898,-2703,65382,0.1415,-0.2346,984,283,-1243,908,97.82,21792,18948,69.67,-66.5,0,normal
2024-03-15 10:00:56,56,0,takeoff,40.416383,-3.701863,28.02,10287,11,1.25,7432,-4473,66.99,0.1745,0.4312,0.9786,256,1051,-218,98.0,21851,16267,64.18,-66.1,0,normal
2024-03-15 10:00:57,57,0,takeoff,40.416348,-3.701838,28.81,4228,13,1.21,7432,-1661,67363,-0.2114,0.3613,1.0094,-1195,1174,2394,97.95,21801,11117,54.64,-71.5,0,normal
2024-03-15 10:00:58,58,0,takeoff,40.416319,-3.701923,29.79,4222,11,1.41,5701,-3418,70556,0.2169,-268,1.0239,389,-422,1631,97.89,21854,11528,54.95,-60.6,0,normal
2024-03-15 10:00:59,59,0,takeoff,40.416291,-3.701899,29.68,9089,11,1.37,8763,-3265,70331,0.0322,-0.3325,0.9927,1572,-609,894,98.11,21911,15177,62.5,-65.8,0,normal
2024-03-15 10:01:00,60,0,takeoff,40.416158,-3.701882,30.01,9943,13,1.55,7152,-4264,72793,-0.1882,0.0844,0.9881,-0.62,-911,999,97.89,21737,16077,63.88,-72.0,0,normal
2024-03-15 10:01:01,61,0,takeoff,40.416113,-3.701935,30.72,8625,13,1.27,7204,-5146,73219,-0.0622,0.0052,0.9917,635,642,1744,98.0,21877,15463,62.62,-65.4,0,normal
2024-03-15 10:01:02,62,0,takeoff,40.416008,-3.701945,30.89,9488,11,1.23,7517,-4549,74682,-0.1354,0.3864,0.9778,-547,1291,536,98.09,21951,15733,63.77,-70.5,0,normal
2024-03-15 10:01:03,63,0,takeoff,40.415946,-3.701991,32.22,5321,12,1.29,5.96,-3846,75356,0.0829,0.5344,0.9742,209,1519,926,97.95,21.84,12456,57.38,-64.4,0,normal
2024-03-15 10:01:04,64,0,takeoff,40.415989,-3.702066,32.05,998,13,1.5,7315,-3505,76904,0.4927,-0.3755,0.9671,319,-529,1.77,97.91,21854,8846,50.92,-71.1,0,normal
2024-03-15 10:01:05,65,0,takeoff,40.41596,-3.702002,32.42,9817,11,1.26,6181,-4123,78325,-0.1124,-0.4121,0.9734,-834,-702,2.04,98.01,21792,15.71,63.73,-64.2,0,normal
2024-03-15 10:01:06,66,0,takeoff,40.415833,-3.70196,32.75,7834,12,1.26,5392,-4037,79532,-0.4974,0.2297,1.0326,961,-278,1123,98.02,21802,14.57,62.32,-71.0,0,normal
2024-03-15 10:01:07,67,0,takeoff,40.415832,-3.702078,33.83,7.69,11,1.23,6996,-4814,80787,0.0829,-0.2151,0.9862,1347,189,574,98.07,21825,14072,60.11,-70.1,0,normal
2024-03-15 10:01:08,68,0,takeoff,40.415746,-3.7021,34.26,10529,11,2.06,7.93,-4066,81416,-3,-0.0629,0.9412,1062,757,833,98.17,21834,16554,64.36,-66.8,0,normal
2024-03-15 10:01:09,69,0,takeoff,40.415644,-3.702111,34.35,8405,13,1.88,6835,-3158,82.56,0.0238,0.5756,0.9883,-39,-165,1346,97.93,21744,15118,61.72,-69.1,0,normal
2024-03-15 10:01:10,70,0,takeoff,40.415642,-3.702245,35.17,1195,12,1.41,6892,-4006,83203,0.2869,-0.0502,0.9682,-1501,0.23,2016,98.0,21813,8983,51.41,-68.8,0,normal
2024-03-15 10:01:11,71,0,takeoff,40.415651,-3.702135,35.05,6549,11,1.25,4973,-3965,85462,-0.0817,-0.2582,1.0012,-1791,-0.31,1182,97.85,21836,13486,58.73,-71.8,0,normal
2024-03-15 10:01:12,72,0,takeoff,40.415523,-3.702249,36.06,6393,12,1.49,3487,-4536,86941,-0.2458,-0.3241,999,1208,-1816,1531,98.04,21766,13195,58.56,-68.2,0,normal
2024-03-15 10:01:13,73,0,takeoff,40.415556,-3.702218,36.64,13.44,12,1.38,6992,-6381,88408,0.0187,-0.1159,1.0011,2011,-1263,289,98.0,21831,18645,68.42,-64.6,0,normal
2024-03-15 10:01:14,74,0,takeoff,40.4153,-3.702379,37.51,7756,13,1.48,7464,-5962,88953,0.2831,0.7498,0.9992,167,1066,1046,97.96,21822,14276,61.47,-61.7,0,normal
2024-03-15 10:01:15,75,0,takeoff,40.415427,-3.702295,37.27,2609,11,1.59,6639,-4495,89617,-0.1445,-0.0292,0.9925,-1249,1.99,911,97.91,21791,9966,53.54,-64.8,0,normal
2024-03-15 10:01:16,76,0,takeoff,40.415346,-3.702392,37.62,10152,11,1.28,4169,-4985,90351,-0.2313,-0.3688,0.9709,-2517,-516,1191,97.94,21836,16.39,63.73,-65.2,0,normal
2024-03-15 10:01:17,77,0,takeoff,40.415285,-3.70245,38.23,6964,13,1.69,2965,-4551,92921,0.0453,-0.0731,0.9985,-21,674,1942,98.0,21843,13825,60.68,-72.3,0,normal
2024-03-15 10:01:18,78,0,takeoff,40.415264,-3.702513,38.6,10651,13,1.66,2845,-3322,92702,0.1822,1,1.0204,-794,1341,1022,97.88,21781,16592,64.26,-67.3,0,normal
2024-03-15 10:01:19,79,0,takeoff,40.41512,-3.702587,39.9,5564,11,1.36,1873,-4273,94.63,0.0992,0.6159,1.0363,44,-447,1706,97.94,21865,12828,58.17,-69.3,0,normal
2024-03-15 10:01:20,80,0,takeoff,40.415171,-3.702564,40.46,4242,13,1.43,3529,-3733,95888,-423,0.2927,0.9952,1437,-76,1178,97.98,21846,11.44,55.17,-71.8,0,normal
2024-03-15 10:01:21,81,0,takeoff,40.415164,-3.702669,40.6,10962,11,1.31,5346,-4881,97165,-0.1919,-0.4694,0.9974,143,-75,1261,97.82,21867,16.96,65.33,-71.0,0,normal
2024-03-15 10:01:22,82,0,takeoff,40.415185,-3.702827,41.37,9388,12,1.41,3006,-5759,98418,0.5558,-0.5855,1.01,-1.16,-524,1061,97.87,21795,16131,63.55,-65.1,0,normal
2024-03-15 10:01:23,83,0,takeoff,40.415053,-3.702838,41.54,9912,12,1.36,3292,-4979,99669,0.2812,0.1495,1.0299,0.33,-118,217,97.91,21789,16514,65.56,-68.9,0,normal
2024-03-15 10:01:24,84,0,takeoff,40.415007,-3.702846,41.97,3729,13,1.28,4331,-5686,99592,-0.1799,0.5975,0.9903,-887,609,1784,98.13,21837,10975,54.69,-71.7,0,normal
2024-03-15 10:01:25,85,0,takeoff,40.414993,-3.702877,42.4,4731,12,1.28,1942,-3276,102007,-0.0644,0.1357,1.0139,-755,0.09,1.0,97.89,21861,11885,56.51,-69.2,0,normal
2024-03-15 10:01:26,86,0,takeoff,40.415036,-3.702951,42.91,3034,11,1.41,4614,-3989,102085,-0.2364,-0.4277,0.9835,0.76,325,1116,97.97,21809,10266,52.94,-66.3,0,normal
2024-03-15 10:01:27,87,0,takeoff,40.414981,-3.702945,43.04,11161,12,1.83,4305,-4196,104766,-0.2265,-0.0867,1.0066,-2179,-4,1554,97.87,21793,17108,65.09,-69.3,0,normal
2024-03-15 10:01:28,88,0,takeoff,40.414914,-3.703161,44.08,7514,12,1.25,1497,-3.41,105322,0.2403,0.3256,1.0194,-1937,-1635,1.19,97.89,21901,14148,60.24,-70.8,0,normal
2024-03-15 10:01:29,89,0,takeoff,40.414944,-3.703115,44.49,4793,12,1.3,699,-6589,105721,0.1306,0.0926,0.9742,567,-465,1701,97.83,21723,11757,56.42,-70.0,0,normal
2024-03-15 10:01:30,90,0,takeoff,40.414903,-3.703273,45.22,3954,11,1.53,1966,-3896,107593,0.1417,-224,0.9895,151,908,1399,98.04,21848,11432,55.52,-64.5,0,normal
2024-03-15 10:01:31,91,0,takeoff,40.414928,-3.703204,45.53,4328,13,1.23,447,-5702,108915,-0.1225,-0.2269,1.0191,-749,-146,2315,97.84,21789,11467,56.13,-73.4,0,normal
2024-03-15 10:01:32,92,0,takeoff,40.414828,-3.703307,45.95,7872,11,2.23,-789,-4.3,110995,-295,0.1583,1.0123,1228,206,1446,98.06,21822,14.23,60.68,-68.1,0,normal
2024-03-15 10:01:33,93,0,takeoff,40.414832,-3.703343,46.24,6791,13,1.43,1.87,-4498,111698,0.1561,0.0145,1.0207,893,648,567,98.02,21778,13575,59.44,-67.6,0,normal
2024-03-15 10:01:34,94,0,takeoff,40.414816,-3.703468,47.02,5564,12,1.68,1526,-3412,112972,0.3108,0.0525,1017,-933,792,1208,97.96,21782,12409,57.6,-69.5,0,normal
2024-03-15 10:01:35,95,0,takeoff,40.414751,-3.703423,47.72,1611,12,1.56,-14,-3727,114591,-0.1588,0.4324,0.9932,-1.77,452,1776,98.06,21814,9303,51.8,-70.2,0,normal
2024-03-15 10:01:36,96,0,takeoff,40.414831,-3.703497,47.66,7857,12,1.5,-1982,-2484,115152,-0.3472,-0.1078,1044,-2173,-404,2135,98.28,21.9,14767,62.05,-64.3,0,normal
2024-03-15 10:01:37,97,0,takeoff,40.414822,-3.703583,48.53,7805,11,1.21,-2208,-4.3,116777,0.0999,-0.2614,1.0027,-52,325,1555,98.02,21869,14129,60.71,-64.3,0,normal
2024-03-15 10:01:38,98,0,takeoff,40.414804,-3.703681,49.07,5.56,12,1.3,-869,-2851,117942,0.0313,-0.1367,0.9389,0.09,433,407,97.86,21707,12766,58.43,-66.9,0,normal
2024-03-15 10:01:39,99,0,takeoff,40.414789,-3.703708,49.28,7784,11,1.25,-1862,-3255,118157,0.0725,0.0307,0.9944,-619,-222,1335,98.12,21785,14127,60.79,-68.9,0,normal
2024-03-15 10:01:40,100,0,takeoff,40.414729,-3.703835,49.82,4677,11,1.61,-1934,-4904,120736,0.3031,0.3686,0.9906,908,-768,785,97.99,21848,11575,56.52,-67.0,0,normal
2024-03-15 10:01:41,101,0,takeoff,40.41478,-3.70382,50.57,3127,13,1.43,-559,-4033,120.49,-0.0113,-0.0331,1.0159,616,509,753,98.18,21888,10533,54.37,-66.0,0,normal
2024-03-15 10:01:42,102,0,takeoff,40.414787,-3.703843,50.66,5032,13,1.22,-1165,-3105,122859,-0.5189,-0.1275,991,-929,725,818,97.92,21734,12589,58.53,-67.6,0,normal
2024-03-15 10:01:43,103,0,takeoff,40.414769,-3.703935,51.6,10345,13,1.29,-647,-1679,122841,-0.1197,0.2574,1022,-1.03,353,1081,98.1,21884,16498,64.43,-66.0,0,normal
2024-03-15 10:01:44,104,0,takeoff,40.414808,-3.704087,51.73,8077,13,1.21,-3744,-2.16,125101,0.2367,0.2888,1.0112,-1196,-968,2105,97.97,21816,14588,61.68,-68.3,0,normal
2024-03-15 10:01:45,105,0,takeoff,40.414845,-3.704095,52.82,9.46,11,1.47,-3218,-3619,126931,0.1178,-0.1685,0.98,1112,-791,922,98.23,21904,15523,62.25,-76.6,0,normal
2024-03-15 10:01:46,106,0,takeoff,40.41493,-3.704239,53.7,4756,11,1.31,-2144,-2415,127094,0.2767,-0.5031,0.9972,762,1819,0.56,97.94,21768,11736,56.6,-67.7,0,normal
2024-03-15 10:01:47,107,0,takeoff,40.414857,-3.704208,53.24,3253,13,1.25,-2761,-77,128272,-0.3073,0.0348,0.9845,0.15,0.59,1786,98.27,21803,10352,53.66,-65.1,0,normal
2024-03-15 10:01:48,108,0,takeoff,40.414876,-3.704275,54.16,10356,13,1.35,-1701,-1801,129905,-0.3546,-0.0639,1.0037,367,-1721,1067,98.01,21809,16655,65.45,-67.1,0,normal
2024-03-15 10:01:49,109,0,takeoff,40.414876,-3.704451,54.28,9345,13,1.21,-3273,-2053,130635,0.4503,0.0855,0.9844,-0.49,117,1419,98.05,21819,15576,63.88,-66.2,0,normal
2024-03-15 10:01:50,110,0,takeoff,40.414802,-3.704476,55.31,2856,13,1.26,-1792,-1045,132909,0.2778,0.6133,1.0015,-632,1019,1242,98.14,21832,10326,53.99,-68.2,0,normal
2024-03-15 10:01:51,111,0,takeoff,40.414917,-3.704492,55.12,8424,13,1.24,-3591,-582,133296,-0.2888,0.3607,0.9946,-483,-826,1437,97.89,21782,14797,61.43,-67.8,0,normal
2024-03-15 10:01:52,112,0,takeoff,40.414943,-3.704551,56.14,11734,13,1.73,-3188,-1608,134.24,0.0093,-0.2894,997,-924,-94,771,98.06,21919,17814,66.52,-66.7,0,normal
2024-03-15 10:01:53,113,0,takeoff,40.415088,-3.704655,56.24,4136,13,1.29,-5069,-453,135.33,267,-0.6351,1041,-714,804,1345,97.94,21725,11492,55.95,-61.3,0,normal
2024-03-15 10:01:54,114,0,takeoff,40.414981,-3.704632,56.94,3556,12,1.38,-4878,-1088,136334,-0.1493,0.1098,0.9928,1526,1204,804,97.98,21777,10828,54.35,-64.7,0,normal
2024-03-15 10:01:55,115,0,takeoff,40.415033,-3.704695,57.19,7023,13,1.34,-4.01,159,137686,-0.2959,0.1221,0.9613,951,668,1521,97.97,21796,14094,60.7,-65.1,0,normal
2024-03-15 10:01:56,116,0,takeoff,40.415046,-3.704773,58.25,6641,13,1.42,-3.37,-192,139025,0.2176,0.1631,1.0203,-202,-4,1508,98.02,21828,13348,58.77,-66.6,0,normal
2024-03-15 10:01:57,117,0,takeoff,40.41502,-3.704856,58.25,7108,11,1.27,-4627,0.32,140156,0.4269,492,1.0202,-1646,-515,1665,98.02,21861,13408,58.67,-71.3,0,normal
2024-03-15 10:01:58,118,0,takeoff,40.415168,-3.704819,59.17,9222,13,1.23,-5792,-721,141271,-0.3109,-0.1798,0.9604,-648,4,1654,97.91,21848,15191,62.22,-63.5,0,normal
2024-03-15 10:01:59,119,0,takeoff,40.415183,-3.704841,59.4,7892,13,1.22,-4224,-583,143849,-0.4923,-472,986,-1482,1619,0.55,97.98,21872,14317,61.02,-64.4,0,normal
2024-03-15 10:02:00,120,0,takeoff,40.415222,-3705,64.63,9195,13,1.24,-8685,1383,143485,303,0.1482,1.0087,-1321,-8,0.32,97.73,21796,15441,62.85,-66.1,0,normal
2024-03-15 10:02:01,121,0,cruise,40.415174,-3.705056,64.72,6305,11,1.33,-7932,557,145273,0.2574,0.1591,1.0105,1395,323,2088,98.06,21748,13.24,58.42,-67.4,0,normal
2024-03-15 10:02:02,122,0,cruise,40.415329,-3.70505,64.47,4616,11,1.25,-5571,1119,146696,-0.1721,-202,0.9999,902,-0.22,2362,98.13,21764,11509,56.62,-65.5,0,normal
2024-03-15 10:02:03,123,0,cruise,40.41523,-3.705141,64.78,5.9,12,1.31,-6529,724,147915,0.0852,0.5883,1.0004,514,73,1454,97.98,21876,12676,57.75,-68.0,0,normal
2024-03-15 10:02:04,124,0,cruise,40.415371,-3.705176,65.19,14934,11,1.21,-5969,2124,148771,-0.0917,-0.0641,0.9812,585,-34,351,97.8,21839,19842,69.58,-65.0,0,normal
2024-03-15 10:02:05,125,0,cruise,40.415495,-3.705177,64.51,7613,11,1.4,-6761,811,149.88,-0.0175,-0.8836,952,55,0.17,1728,98.04,21861,14457,61.49,-69.6,0,normal
2024-03-15 10:02:06,126,0,cruise,40.415381,-3.705353,65.11,3482,12,1.62,-6287,1473,151426,0.4208,0.3791,1041,-573,1041,855,97.88,21.76,11165,55.09,-73.1,0,normal
2024-03-15 10:02:07,127,0,cruise,40.415449,-3.705234,65.22,8155,11,1.21,-8077,2583,152533,-0.2533,0.3766,0.9806,-882,982,848,97.98,21802,14974,61.87,-70.8,0,normal
2024-03-15 10:02:08,128,0,cruise,40.41553,-3.705337,64.55,8978,12,1.25,-6534,3155,153471,-0.2273,-0.3416,1.0035,655,-295,837,98.03,21808,15263,62.38,-66.8,0,normal
2024-03-15 10:02:09,129,0,cruise,40.415549,-3.705401,64.37,3811,12,1.28,-6136,1.64,154019,228,0.0967,0.9968,143,807,1325,98.01,21774,11431,55.48,-68.2,0,normal
2024-03-15 10:02:10,130,0,cruise,40.415547,-3.705422,64.91,7.53,11,1.27,-5967,4302,155766,-0.1656,0.3302,1.0179,87,538,1337,98.07,21848,13939,60.93,-67.7,0,normal
2024-03-15 10:02:11,131,0,cruise,40.415679,-3.705456,64.67,9573,11,1.21,-5.11,2831,156627,0.1372,0.0082,1.0023,-552,-1013,0.85,97.97,21925,15708,63.51,-71.1,0,normal
2024-03-15 10:02:12,132,0,cruise,40.415675,-3.705575,65.4,7276,12,1.22,-7.32,1645,158066,0.3946,-0.04,1.0031,-0.17,-133,2025,97.98,21793,13618,59.64,-66.4,0,normal
2024-03-15 10:02:13,133,0,cruise,40.415806,-3.705447,64.87,6565,12,1.69,-7362,3224,159617,-0.2546,0.1076,0.9473,-375,0.82,1193,98.03,21894,13525,59.21,-70.2,0,normal
2024-03-15 10:02:14,134,0,cruise,40.415791,-3.705551,64.63,10365,12,1.45,-9588,2633,160979,-0.0783,0.0395,0.9833,-426,0.62,2264,97.95,21769,16399,65.38,-65.8,0,normal
2024-03-15 10:02:15,135,0,cruise,40.41597,-3.70556,64.53,6436,12,1.84,-8458,3608,162.89,-0.0282,-0.4016,1.0149,1132,674,296,97.89,21725,12703,58.29,-71.4,0,normal
2024-03-15 10:02:16,136,0,cruise,40.415909,-3.705562,65.22,5412,11,1.32,-8104,3283,162931,-0.1361,0.2269,1.0131,537,345,1056,98.0,21873,12591,58.16,-69.7,0,normal
2024-03-15 10:02:17,137,0,cruise,40.41599,-3.705687,64.73,11238,13,1.62,-6655,3546,164787,0.2292,0.1619,981,443,-58,798,97.84,21782,17218,66.13,-70.2,0,normal
2024-03-15 10:02:18,138,0,cruise,40.416104,-3.705636,64.92,3862,12,1.54,-8683,2702,165753,111,-0.2864,0.9684,-963,1183,913,97.95,21877,11073,55.43,-65.5,0,normal
2024-03-15 10:02:19,139,0,cruise,40.416061,-3.705695,65.21,5177,11,1.62,-7019,4739,167448,-0.2778,0.4905,1.0025,801,-1126,1011,97.82,21862,12206,57.17,-68.6,0,normal
2024-03-15 10:02:20,140,0,cruise,40.416193,-3.70566,64.78,14.86,12,1.21,-7994,2722,168288,-0.1532,-0.1697,0.9419,-348,-496,1384,97.9,21.79,19764,70.39,-65.9,0,normal
2024-03-15 10:02:21,141,0,cruise,40.416307,-3.705827,64.92,3785,13,1.41,-8212,2892,168696,0.3892,-0.4938,977,-231,1869,1279,97.9,21872,10943,54.88,-63.9,0,normal
2024-03-15 10:02:22,142,0,cruise,40.416222,-3.705742,64.94,4273,11,1.37,-7.7,4485,169538,0.1638,0.5425,1.0352,-227,1158,1967,97.86,21752,11858,57.39,-61.9,0,normal
2024-03-15 10:02:23,143,0,cruise,40.416373,-3.705782,65.16,11937,11,1.36,-8458,5831,171756,-0.0276,0.2704,1.0289,-959,-0.62,1515,98.07,21.79,17406,66.43,-66.6,0,normal
2024-03-15 10:02:24,144,0,cruise,40.416438,-3.705743,65.13,8826,13,1.34,-8484,3979,172536,-0.1468,-0.4587,1.0097,-1311,292,971,98.06,21887,15092,62.8,-70.5,0,normal
2024-03-15 10:02:25,145,0,cruise,40.416526,-3.705752,64.9,4253,13,1.52,-9987,5129,173.51,-0.2457,-0.3648,1.0061,-655,342,1648,98.09,21761,11141,55.65,-63.4,0,normal
2024-03-15 10:02:26,146,0,cruise,40.416487,-3.70582,64.99,3409,11,1.89,-8203,5.59,174566,0.2063,0.4524,961,1.16,-191,1836,97.94,21.81,10911,54.92,-62.7,0,normal
2024-03-15 10:02:27,147,0,cruise,40.416546,-3.705827,64.86,11939,13,1.55,-8436,5414,176.48,0.0885,0.5144,0.9852,492,-529,1903,97.91,21868,17708,67.7,-67.4,0,normal
2024-03-15 10:02:28,148,0,cruise,40.416701,-3.705802,64.54,11551,11,1.61,-8425,4363,178354,0.0861,-269,0.9941,-484,-1281,1801,98.03,21895,17403,65.24,-63.3,0,normal
2024-03-15 10:02:29,149,0,cruise,40.416752,-3.705844,65.06,6513,13,1.33,-7243,3.65,178596,0.0667,-0.2316,0.9856,1691,-447,1378,97.97,21795,13347,58.11,-66.3,0,normal
2024-03-15 10:02:30,150,0,cruise,40.416813,-3.705758,65.56,7155,12,1.43,-6881,2593,180295,-501,-0.0932,993,-41,75,1398,97.97,21867,14.03,61.12,-72.2,0,normal
2024-03-15 10:02:31,151,0,cruise,40.41688,-3.705817,64.73,8971,12,1.31,-7313,4.59,181149,-0.0138,0.0038,1026,431,1921,501,97.7,21.71,15144,61.94,-69.1,0,normal
2024-03-15 10:02:32,152,0,cruise,40.416892,-3.705941,64.76,6541,11,1.29,-6309,6075,181755,619,0.2911,0.9892,-438,-248,1135,98.03,21795,13054,58.55,-68.9,0,normal
2024-03-15 10:02:33,153,0,cruise,40417,-3.70581,64.73,10603,11,1.65,-6716,3809,183967,-0.1421,-0.1133,0.9932,-13,625,1081,98.01,21837,16385,65.37,-68.3,0,normal
2024-03-15 10:02:34,154,0,cruise,40.417065,-3.705836,65.22,4605,11,1.67,-7656,5662,184253,-0.1921,0.0757,1.0148,-414,694,1.25,97.95,21832,11459,55.73,-70.1,0,normal
2024-03-15 10:02:35,155,0,cruise,40.417077,-3.705857,65.13,11034,12,1.43,-7744,4033,186011,0.3543,0.2947,0.9716,1051,-545,1806,98.03,21776,16928,66.32,-70.2,0,normal
2024-03-15 10:02:36,156,0,cruise,40.417268,-3.705826,64.95,11144,12,1.56,-6692,5101,187029,0.3027,-0.6389,0.9832,1357,205,696,98.01,21918,16937,65.29,-63.3,0,normal
2024-03-15 10:02:37,157,0,cruise,40.41726,-3.705746,64.72,6933,11,1.29,-6.25,5708,188847,-0.1598,-0.1472,0.9852,1451,37,48,97.88,21706,13686,59.94,-72.4,0,normal
2024-03-15 10:02:38,158,0,cruise,40.417238,-3.705671,65.03,7534,14,1.31,-5125,4337,189071,-0.4783,0.4444,1.0011,187,-603,599,97.93,21812,13707,59.7,-69.3,0,normal
2024-03-15 10:02:39,159,0,cruise,40.417391,-3.705705,64.53,7715,12,1.54,-5229,5156,190995,0.0056,0.0108,0.9931,-1.12,-61,1051,97.85,21804,14.19,61.29,-65.4,0,normal
2024-03-15 10:02:40,160,0,cruise,40.417369,-3.705732,65.04,7407,12,1.3,-7156,4551,191.58,0.2033,0.2667,0.9937,-927,-286,1572,98.1,21753,14187,60.41,-68.9,0,normal
2024-03-15 10:02:41,161,0,cruise,40.417517,-3.705659,65.26,12551,12,1.21,-6.47,5644,192944,-0.1272,-0.2639,0.9867,1337,633,361,98.05,21898,18195,67.27,-66.0,0,normal
2024-03-15 10:02:42,162,0,cruise,40.417594,-3.705683,64.62,1878,14,1.29,-5377,5139,192582,-0.0395,-0.3266,0.9786,1038,-687,1978,97.87,21761,9187,51.3,-68.5,0,normal
2024-03-15 10:02:43,163,0,cruise,40.417553,-3.70567,64.53,5651,13,1.3,-4728,4917,196646,0.0078,0.4108,1.0122,871,597,2455,98.01,21.83,12555,57.39,-65.9,0,normal
2024-03-15 10:02:44,164,0,cruise,40.4177,-3.705667,65.46,9574,14,1.23,-4703,6368,197075,0.1614,-22,0.9932,0.06,239,-27,97.98,21835,15533,62.64,-70.4,0,normal
2024-03-15 10:02:45,165,0,cruise,40.417729,-3.70567,64.8,7146,13,1.28,-5721,5413,197616,0.3119,0.0212,1.0124,-1.99,-1095,1511,97.88,21727,13756,59.42,-72.9,0,normal
2024-03-15 10:02:46,166,0,cruise,40.417805,-3.705572,65.32,12081,13,1.74,-6957,3995,198638,-0.0237,-0.1461,0.9778,309,-113,936,97.96,21762,17655,67.34,-68.5,0,normal
2024-03-15 10:02:47,167,0,cruise,40.417913,-3.705514,64.93,4548,14,1.59,-6453,4526,200152,-0.2295,-0.5846,0.9867,1592,109,2.44,98.03,21907,12026,57.35,-72.6,0,normal
2024-03-15 10:02:48,168,0,cruise,40.417859,-3.705493,64.92,2359,13,1.32,-4723,4455,201958,-0.0854,0.0604,0.9956,827,-372,788,98.04,21827,9917,53.05,-67.4,0,normal
2024-03-15 10:02:49,169,0,cruise,40.417886,-3.705475,65.1,4029,14,1.45,-4.43,4523,201854,0.1617,0.3411,0.9974,-436,279,817,98.18,21722,11294,55.01,-70.6,0,normal
2024-03-15 10:02:50,170,0,cruise,40.417931,-3.705465,64.69,7647,13,1.23,-5944,6871,203929,0.0754,0.1622,1.0151,-23,98,1.56,97.96,21799,14154,60.19,-70.6,0,normal
2024-03-15 10:02:51,171,0,cruise,40.417985,-3.70535,64.99,8173,12,1.48,-4352,4616,206085,-0.0503,0.1787,0.9914,1569,-2464,1051,97.92,21806,14659,60.35,-62.7,0,normal
2024-03-15 10:02:52,172,0,cruise,40.418071,-3.705407,64.83,9248,13,1.33,-3423,2.1,205833,0.0974,-0.1012,1.0149,-676,-924,1905,98.0,21834,15.4,62.91,-66.5,0,normal
2024-03-15 10:02:53,173,0,cruise,40.41814,-3.705261,64.54,7606,14,1.46,-5332,3477,207.64,-0.1608,-0.1038,1.0075,756,-36,2241,97.93,21709,14262,60.33,-71.8,0,normal
2024-03-15 10:02:54,174,0,cruise,40.418183,-3.705308,65.03,6389,13,1.41,-2391,1965,209902,-0.0812,-0.1048,0.9979,734,409,1473,97.89,21.8,13.04,59.21,-67.4,0,normal
2024-03-15 10:02:55,175,0,cruise,40.418256,-3.705252,64.84,4983,12,1.25,-3932,3.44,210316,0.2086,0.0073,981,116,397,347,97.85,21753,12319,56.49,-67.7,0,normal
2024-03-15 10:02:56,176,0,cruise,40.418259,-3.705242,64.86,8055,14,1.56,-1727,1648,211263,0.3503,0.0148,1.0151,245,-1176,1465,97.6,21759,14589,60.96,-73.5,0,normal
2024-03-15 10:02:57,177,0,cruise,40.418373,-3.705148,64.54,9986,12,1.37,-3631,2623,212653,0.1006,0.1343,0.9815,0.23,-0.09,1147,98.02,21851,16014,63.78,-66.3,0,normal
2024-03-15 10:02:58,178,0,cruise,40.418328,-3.705026,65.37,10191,12,1.51,-3974,1828,213.4,-0.2775,0.1147,0.9996,-47,0.96,1367,97.78,21801,16323,64.61,-64.3,0,normal
2024-03-15 10:02:59,179,0,cruise,40.418516,-3705,65.14,8064,12,1.22,-3.04,3582,215.45,-0.1078,-0.6802,0.9989,687,1405,1448,97.86,21866,14553,62.1,-68.6,0,normal
2024-03-15 10:03:00,180,0,cruise,40.418449,-3.704927,65.16,7171,14,1.39,-2.35,3042,215.8,-191,-0.3855,0.9959,-36,-608,-523,97.97,21927,13915,59.36,-68.1,0,normal
2024-03-15 10:03:01,181,0,cruise,40.418411,-3.704898,64.77,0.91,13,1.27,-2444,3184,216.22,-0.0767,0.6951,0.9922,-96,473,1152,97.91,21749,8769,50.63,-68.8,0,normal
2024-03-15 10:03:02,182,0,cruise,40.418435,-3.704927,64.33,7845,12,1.59,-1978,2.61,218204,0.2713,0.3587,0.9836,1102,-1692,0.85,98.16,21833,14277,59.98,-66.0,0,normal
2024-03-15 10:03:03,183,0,cruise,40.418546,-3.704835,65.42,7838,14,1.8,-1057,1151,219117,0.2691,-147,0.9677,647,711,1242,97.79,21821,14394,61.31,-68.0,0,normal
2024-03-15 10:03:04,184,0,cruise,40.418541,-3.704803,64.8,9077,13,1.21,-1.4,2884,220659,-0.0479,-35,1.0281,21,1341,1015,98.17,21848,15246,62.12,-67.9,0,normal
2024-03-15 10:03:05,185,0,cruise,40.418618,-3.704641,64.58,6317,13,1.46,-1009,4115,221.87,-0.1856,-181,0.9902,-145,0.55,1242,98.08,21702,13279,58.85,-69.7,0,normal
2024-03-15 10:03:06,186,0,cruise,40.418633,-3.704711,64.92,4052,14,1.22,-2716,2421,223799,0.3032,-0.2856,0.9974,937,-1589,772,98.03,21819,11543,55.69,-61.1,0,normal
2024-03-15 10:03:07,187,0,cruise,40.418632,-3.70455,65.13,9383,14,1.59,71,1401,224748,0.1839,-0.1103,0.9973,1157,-1.26,1524,98.09,21.9,15631,63.19,-68.0,0,normal
2024-03-15 10:03:08,188,0,cruise,40.418617,-3.704492,64.76,7.03,13,1.23,-239,211,225732,-0.3673,217,1.0219,231,-497,687,97.98,21749,13973,60.07,-65.1,0,normal
2024-03-15 10:03:09,189,0,cruise,40.418606,-3.704386,65.13,4193,13,1.24,2067,541,226799,-226,0.5067,1.0387,171,-19,557,97.77,21.79,11696,55.57,-66.3,0,normal
2024-03-15 10:03:10,190,0,cruise,40.41868,-3.704439,65.06,9.08,12,1.26,-726,1709,227471,0.4335,0.0356,1.0032,-1.7,-84,1421,97.99,21726,15.22,62.44,-74.9,0,normal
2024-03-15 10:03:11,191,0,cruise,40.418763,-3.704322,64.39,11419,13,1.46,-1503,2135,228109,-0.0174,-0.6194,0.9969,1211,-36,1777,97.79,21827,17311,65.76,-68.4,0,normal
2024-03-15 10:03:12,192,0,cruise,40.418748,-3.704183,64.5,4.71,12,1.27,1674,1126,230457,-0.67,-0.1443,0.9775,1325,161,927,97.89,21813,11579,56.25,-70.7,0,normal
2024-03-15 10:03:13,193,0,cruise,40.41869,-3.704267,64.97,3259,12,1.38,1613,1468,231997,0.0343,0.5166,0.9711,-0.34,329,1837,97.93,21781,10731,54.34,-64.2,0,normal
2024-03-15 10:03:14,194,0,cruise,40.418773,-3.704252,63.85,6385,13,1.37,0.25,1177,232746,0.6689,-0.1724,0.9645,-689,-973,1692,97.85,21773,12978,57.84,-71.0,0,normal
2024-03-15 10:03:15,195,0,cruise,40.418795,-3.704207,64.6,10152,14,1.3,-115,776,233733,0.11,-0.3137,0.9841,1669,-643,2.12,98.03,21754,16147,65.27,-65.8,0,normal
2024-03-15 10:03:16,196,0,cruise,40.41874,-3.704015,64.2,5365,13,1.36,3825,-589,235432,-0.3915,0.2625,0.9582,1412,-861,1647,97.92,21857,12.13,57.66,-64.2,0,normal
2024-03-15 10:03:17,197,0,cruise,40.418799,-3.704082,64.46,4407,12,1.23,3935,44,236358,0.2573,-0.1888,1.0216,-1625,-91,954,97.98,21779,11809,57.48,-66.4,0,normal
2024-03-15 10:03:18,198,0,cruise,40.418799,-3.703944,64.5,10638,13,1.62,-493,-1178,238443,0.1961,-0.1442,1.0085,-568,288,1504,97.94,21836,16457,64.45,-67.2,0,normal
2024-03-15 10:03:19,199,0,cruise,40.418742,-3.703841,64.46,6.44,13,1.25,2194,-512,239416,-0.2529,0.3848,995,2869,575,294,97.95,21765,13348,58.61,-68.3,0,normal
2024-03-15 10:03:20,200,0,cruise,40.418818,-3.703791,64.38,7187,14,1.62,4.99,-397,240.48,-0.0179,0.0172,1.0222,-1092,1367,648,97.85,21904,13801,60.25,-67.6,0,normal
2024-03-15 10:03:21,201,0,cruise,40.418827,-3.703716,64.2,5689,12,1.35,2668,754,241579,0.0713,-0.2057,0.9786,-1068,-1092,82,97.82,21867,12247,57.6,-71.3,0,normal
2024-03-15 10:03:22,202,0,cruise,40.41885,-3.703663,65.19,7203,12,1.39,2892,-2.43,241755,-0.1561,-0.4975,0.9836,235,-902,863,97.92,21912,13715,59.79,-66.7,0,normal
2024-03-15 10:03:23,203,0,cruise,40.418844,-3.703548,65.04,8071,12,1.26,3.38,-833,243931,-0.3183,-0.38,0.9613,-451,1236,1699,97.84,21902,14467,59.99,-64.1,0,normal
2024-03-15 10:03:24,204,0,cruise,40.418715,-3.703597,64.11,6427,12,1.25,2608,-25,244988,0.1301,0.5769,1.0155,-244,-723,963,98.08,21805,13185,58.24,-69.8,0,normal
2024-03-15 10:03:25,205,0,cruise,40.418728,-3.703521,64.91,6861,14,1.33,2137,-937,246303,0.3818,0.4705,0.9838,1889,-714,985,97.8,21.74,13839,60.12,-67.1,0,normal
2024-03-15 10:03:26,206,0,cruise,40.41879,-3.703464,64.29,8856,14,1.26,5671,-1.05,247446,0.1496,-0.2766,1.0003,358,-428,1016,98.17,21956,15.42,62.43,-67.6,0,normal
2024-03-15 10:03:27,207,0,cruise,40.418778,-3.703322,64.43,8902,12,1.31,2416,-1479,248626,-0.2384,0.2493,1.0201,253,-91,2502,97.97,21809,15136,61.56,-66.3,0,normal
2024-03-15 10:03:28,208,0,cruise,40.418763,-3.703258,64.35,8646,13,1.32,5139,-948,250.95,-0.1365,-0.0184,1.0274,1339,-882,2.15,97.94,21853,14747,61.42,-68.9,0,normal
2024-03-15 10:03:29,209,0,cruise,40.418913,-3.703219,64.14,6132,12,1.26,6116,-3511,250762,-175,-0.8796,0.9994,-1039,-2257,534,97.88,21769,12758,56.34,-72.0,0,normal
2024-03-15 10:03:30,210,0,cruise,40.418731,-3.703123,64.61,9.54,13,1.27,3514,-3982,252468,-5,0.0082,1.0077,-848,-203,1269,98.0,21792,15751,63.05,-70.6,0,normal
2024-03-15 10:03:31,211,0,cruise,40.418739,-3.703181,64.33,6284,12,1.92,4345,-2772,252965,0.4294,0.2773,0.9819,1483,12,743,97.91,21848,13059,58.29,-74.2,0,normal
2024-03-15 10:03:32,212,0,cruise,40.418707,-3.70298,64.12,11441,14,1.38,7102,-5091,254795,-155,-0.2393,1.0337,1427,-547,1936,97.96,21717,16939,65.65,-65.0,0,normal
2024-03-15 10:03:33,213,0,cruise,40.418668,-3.70293,63.85,6955,14,1.56,6471,-1859,256.07,-0.2668,0.0277,0.9967,-1177,1842,855,98.02,21865,13473,59.53,-66.1,0,normal
2024-03-15 10:03:34,214,0,cruise,40.418594,-3.702912,63.94,5655,12,1.21,5.27,-2023,256982,-0.1267,0.0926,1.0016,1227,-1171,1027,98.0,21849,12791,58.21,-67.3,0,normal
2024-03-15 10:03:35,215,0,cruise,40.41862,-3.702803,63.69,4557,13,1.2,7626,-3827,258835,-0.2664,-0.1817,0.9919,798,-863,1889,98.06,21807,11729,56.56,-69.4,0,normal
2024-03-15 10:03:36,216,0,cruise,40.418514,-3.702919,64.16,5999,13,1.35,7797,-3908,258758,0.3785,0.0974,1024,668,818,-17,97.99,21821,12.88,58.1,-67.6,0,normal
2024-03-15 10:03:37,217,0,cruise,40.41851,-3.702808,63.77,7036,13,1.55,6831,-3749,260156,0.3807,0.1375,1004,-94,0.01,248,97.84,21801,13563,58.69,-67.3,0,normal
2024-03-15 10:03:38,218,0,cruise,40.418464,-3.702765,64.02,7663,14,1.39,5579,-3757,261706,-0.1622,0.3354,1.0152,-309,283,1909,97.72,21782,14084,60.37,-68.7,0,normal
2024-03-15 10:03:39,219,0,cruise,40.418458,-3.70264,64.48,5395,13,1.39,6307,-3808,263.24,-0.1377,-331,1.0071,1425,159,1008,97.95,21848,12446,56.96,-68.7,0,normal
2024-03-15 10:03:40,220,0,cruise,40.418534,-3.702677,64.4,10498,13,1.23,7284,-3497,264.09,0.2972,-0.6798,0.9956,67,-322,978,97.95,21773,16.44,63.91,-63.4,0,normal
2024-03-15 10:03:41,221,0,cruise,40.418287,-3.702536,64.0,12889,13,1.97,6842,-4342,265843,-7,0.2713,1.0186,1023,-34,2356,98.12,21981,18521,68.63,-70.9,0,normal
2024-03-15 10:03:42,222,0,cruise,40.418375,-3.702457,63.96,5525,14,1.35,8316,-3333,266069,-0.3991,0.0473,1.0069,-776,556,959,97.92,21797,12.55,56.88,-64.3,0,normal
2024-03-15 10:03:43,223,0,cruise,40.41822,-3.702443,64.52,8.0,12,1.22,5467,-3.93,267.03,-0.1765,0.3383,0.9808,-1994,-1238,1413,97.97,21.81,14461,61.37,-72.0,0,normal
2024-03-15 10:03:44,224,0,cruise,40.418234,-3.702417,64.08,2772,14,1.31,5614,-5077,268954,-0.0351,0.2261,0.9802,-639,-211,1112,98.01,21921,10354,52.99,-62.4,0,normal
2024-03-15 10:03:45,225,0,cruise,40.418269,-3.702435,63.79,3583,14,1.21,7721,-3221,269961,0.3905,-0.6902,1003,0.56,-421,1482,97.98,21728,10757,54.22,-74.4,0,normal
2024-03-15 10:03:46,226,0,cruise,40.418172,-3.702384,63.43,13796,12,1.31,7002,-5993,271471,263,-0.2221,1.0181,-261,-692,346,98.01,21922,19082,69.07,-65.8,0,normal
2024-03-15 10:03:47,227,0,cruise,40.418069,-3.702237,63.94,10226,12,1.45,6.92,-4798,272386,-0.3931,0.5062,1.0328,-25,183,721,97.85,21798,16548,65.35,-69.2,0,normal
2024-03-15 10:03:48,228,0,cruise,40.418039,-3.70222,64.04,911,13,1.28,5622,-3803,273.43,-0.3416,0.0952,0.9645,473,-381,1.17,97.83,21764,8838,51.2,-67.7,0,normal
2024-03-15 10:03:49,229,0,cruise,40.41806,-3.702222,63.57,5649,13,1.28,7.83,-5549,274763,-0.0974,-351,1.0005,1589,-994,1399,97.9,21748,12477,57.05,-67.6,0,normal
2024-03-15 10:03:50,230,0,cruise,40.417939,-3.702203,63.82,6931,12,1.34,7797,-4565,276014,63,81,1.0098,203,902,1071,97.71,21705,13616,59.43,-65.4,0,normal
2024-03-15 10:03:51,231,0,cruise,40.417935,-3.702247,63.59,4034,13,1.34,8.69,-4372,277048,0.6051,-0.0509,1.0059,-55,-1524,795,97.92,21791,11012,55.49,-73.0,0,normal
2024-03-15 10:03:52,232,0,cruise,40.417874,-3.702165,63.61,13798,12,1.33,8025,-5808,278298,0.0234,0.1781,1.0202,87,626,1636,97.86,21.81,19143,70.2,-67.3,0,normal
2024-03-15 10:03:53,233,0,cruise,40.417786,-3.701983,62.88,2381,13,1.35,7.81,-5045,279398,-0.6244,0.2807,1.0131,-544,162,639,97.96,21846,10283,52.83,-66.7,0,normal
2024-03-15 10:03:54,234,0,cruise,40.417871,-3.702111,63.53,2729,14,1.21,9401,-5146,281228,0.2597,-0.9075,0.9803,-687,-685,1.21,97.9,21817,10.08,53.8,-69.2,0,normal
2024-03-15 10:03:55,235,0,cruise,40.41774,-3.702009,63.85,19309,13,1.33,6423,-5.55,282097,0.0048,-0.2418,0.9797,-579,1083,1291,97.83,21764,23562,78.03,-67.6,0,normal
2024-03-15 10:03:56,236,0,cruise,40.41755,-3.70194,63.33,7.41,12,2.17,8643,-2698,284328,-0.3356,774,1.0062,462,175,1698,98.06,21.9,13942,60.18,-69.2,0,normal
2024-03-15 10:03:57,237,0,cruise,40.417604,-3.702027,63.5,2808,12,1.49,5986,-5755,284.48,389,0.1237,1.0198,-1101,-192,269,97.93,21944,10296,53.49,-65.5,0,normal
2024-03-15 10:03:58,238,0,cruise,40.417503,-3.701931,63.22,8023,14,1.27,6969,-3972,285325,0.0772,-0.2576,1.0029,512,67,2046,98.01,21.9,14414,60.67,-66.1,0,normal
2024-03-15 10:03:59,239,0,cruise,40.41752,-3.701871,63.52,7006,13,1.43,6494,-5347,288135,-46,-0.1999,0.9684,1403,-1738,1608,97.94,21794,13842,59.29,-66.6,0,normal
2024-03-15 10:04:00,240,0,cruise,40.417378,-3.701897,63.31,10927,12,1.28,8853,-6.01,288207,-0.1894,0.1698,0.9791,-97,-323,-138,97.97,21842,16584,65.02,-65.2,0,normal
2024-03-15 10:04:01,241,0,cruise,40.417352,-3.701736,63.06,3647,13,1.24,7793,-4782,289695,-0.4339,0.2787,1.0138,-595,1054,1212,97.79,21811,11097,54.89,-63.6,0,normal
2024-03-15 10:04:02,242,0,cruise,40.417323,-3.701946,63.7,4729,12,1.5,7804,-4189,290696,0.3327,-0.3983,993,-897,953,237,98.05,21913,11818,56.49,-70.1,0,normal
2024-03-15 10:04:03,243,0,cruise,40.41728,-3.701795,63.54,12205,13,1.25,6431,-3863,291912,0.1403,-0.3091,1.0024,236,1073,1362,98.01,21808,17418,66.58,-60.6,0,normal
2024-03-15 10:04:04,244,0,cruise,40.417115,-3.701844,63.05,10076,14,1.59,7.33,-3159,293068,-0.1233,0.3262,1.0213,0.47,1162,404,97.92,21.76,16.2,65.42,-66.0,0,normal
2024-03-15 10:04:05,245,0,cruise,40.417096,-3.701786,63.34,5351,13,1.3,6696,-1707,293449,-0.1574,0.0922,976,211,-99,1751,97.95,21.87,12376,57.88,-68.8,0,normal
2024-03-15 10:04:06,246,0,cruise,40.417027,-3.701794,63.31,8079,13,1.48,7986,-4325,295384,-0.1198,0.1818,0.9917,-751,-767,1054,98.02,21847,14314,61.04,-60.3,0,normal
2024-03-15 10:04:07,247,0,cruise,40.416956,-3.701846,63.3,647,12,1.26,6242,-5154,295738,0.0281,0.1994,0.9895,988,784,679,97.89,21746,8581,49.38,-68.4,0,normal
2024-03-15 10:04:08,248,0,cruise,40.417014,-3.701792,62.56,4362,13,1.41,8924,-3946,297513,0.0181,-0.7142,1.0071,-551,754,1.95,97.76,21813,11248,55.44,-70.9,0,normal
2024-03-15 10:04:09,249,0,cruise,40.416883,-3.701894,63.33,15284,12,1.25,5207,-4567,298437,0.3433,-0.0854,1.0155,-2206,-65,897,97.89,21893,20137,72.04,-68.6,0,normal
2024-03-15 10:04:10,250,0,cruise,40.416737,-3.70177,62.82,7302,12,1.2,6131,-3269,300179,-0.0401,0.8917,0.9704,1123,75,1912,97.94,21776,13938,59.87,-68.9,0,normal
2024-03-15 10:04:11,251,0,cruise,40.416783,-3.701786,62.84,2325,13,1.54,8984,-5.38,301367,-0.1794,-0.0414,0.9999,311,1067,1465,97.92,21763,9523,53.24,-64.0,0,normal
2024-03-15 10:04:12,252,0,cruise,40.416781,-3.701772,63.7,6663,12,1.59,6315,-1596,302641,-0.0117,-1.0017,1.0174,-2572,1524,1006,98.05,21834,13152,58.95,-67.6,0,normal
2024-03-15 10:04:13,253,0,cruise,40.416663,-3.701756,62.96,17.03,14,1.63,5117,-2984,303744,-197,-0.2222,0.9629,1176,-1268,0.26,97.83,21824,21535,73.91,-67.0,0,normal
2024-03-15 10:04:14,254,0,cruise,40.416473,-3.701797,62.71,11344,13,1.21,6808,-5392,304497,-0.1537,909,0.9987,-118,-469,1684,97.84,21788,17095,65.28,-67.1,0,normal
2024-03-15 10:04:15,255,0,cruise,40.416463,-3.701817,62.13,3802,14,1.49,5817,-4.28,305869,-0.0171,0.1774,0.9757,-794,1339,1832,97.81,21844,11203,55.92,-63.7,0,normal
2024-03-15 10:04:16,256,0,cruise,40.416489,-3.701879,63.16,7939,13,1.56,5221,-2612,307.66,0.3427,-0.5045,0.9872,-0.46,553,1146,97.96,21829,14211,60.17,-68.1,0,normal
2024-03-15 10:04:17,257,0,cruise,40.416328,-3.701884,62.3,9641,12,1.27,4738,-2104,308934,0.3173,0.2804,0.9499,1624,-1042,806,97.77,21829,15673,62.93,-67.8,0,normal
2024-03-15 10:04:18,258,0,cruise,40.416325,-3.701803,62.36,4258,14,1.33,9197,-4399,309027,-0.3988,-0.0595,1.0279,-794,31,1053,97.99,21785,11518,54.79,-69.3,0,normal
2024-03-15 10:04:19,259,0,cruise,40.416281,-3.701808,62.52,11478,14,1.3,5389,-2255,310035,-0.4188,-0.2982,0.9929,-2908,-38,1361,97.83,21728,17226,66.45,-68.5,0,normal
2024-03-15 10:04:20,260,0,cruise,40.416136,-3.70191,63.0,10046,12,1.32,3.19,-4752,311637,0.0438,-0.1444,0.9839,477,-114,1963,97.84,21776,15945,64.0,-65.6,0,normal
2024-03-15 10:04:21,261,0,cruise,40.41612,-3.701916,62.77,13307,13,1.58,7096,-2726,313723,0.2427,11,1.0066,1381,2179,2201,98.1,21773,19031,69.26,-65.0,0,normal
2024-03-15 10:04:22,262,0,cruise,40.415902,-3.701986,62.44,9335,13,1.31,5834,-1353,315007,0.2145,0.7679,0.9792,-1623,376,1476,98.04,21851,15568,63.39,-62.1,0,normal
2024-03-15 10:04:23,263,0,cruise,40.415954,-3.701906,62.54,2232,13,1.27,3973,-2841,315138,-77,0.0833,0.9773,-1006,-1163,913,97.93,21709,9.82,53.0,-67.6,0,normal
2024-03-15 10:04:24,264,0,cruise,40.415936,-3.701957,62.22,6886,13,1.23,3.56,-3617,316954,-0.3663,-0.1352,1.0302,1429,107,1221,97.79,21.76,13522,59.16,-68.1,0,normal
2024-03-15 10:04:25,265,0,cruise,40.41583,-3.701921,62.4,5707,14,1.42,5269,-1.78,318917,-0.3355,0.0056,1.0362,-83,827,576,98.12,21831,12876,57.78,-66.2,0,normal
2024-03-15 10:04:26,266,0,cruise,40.415918,-3.702091,62.34,9795,12,1.22,3.94,-2345,319408,0.3046,-0.5776,0.9882,-2.02,1552,751,97.9,21751,15981,62.91,-68.5,0,normal
2024-03-15 10:04:27,267,0,cruise,40.41571,-3.702097,62.56,11792,12,1.21,1697,-922,321111,0.3615,0.2595,1.0213,157,0.21,878,97.94,21796,17.15,65.78,-69.2,0,normal
2024-03-15 10:04:28,268,0,cruise,40.415706,-3.7021,62.52,1458,14,1.43,5.92,-2246,322099,-0.1564,0.5796,1.0071,563,-657,-224,98.01,21824,9049,50.63,-66.3,0,normal
2024-03-15 10:04:29,269,0,cruise,40.415682,-3.702114,62.33,3977,12,1.44,3017,-1.94,322345,-0.2693,-425,0.9717,-209,-105,1827,97.72,21833,11177,55.2,-68.4,0,normal
2024-03-15 10:04:30,270,0,cruise,40.415696,-3.702193,62.03,11.78,12,1.24,5092,-2993,323905,0.1696,-0.2933,0.9814,543,965,1.7,97.85,21743,17478,66.38,-68.0,0,normal
2024-03-15 10:04:31,271,0,cruise,40.415502,-3.702263,62.31,6.55,12,1.83,4586,-605,325217,316,0.4314,1031,-1536,1.42,1012,97.91,21823,13458,59.02,-65.4,0,normal
2024-03-15 10:04:32,272,0,cruise,40.415583,-3.702215,62.02,1171,14,1.51,1603,-737,326452,-0.3229,-0.1994,0.9715,-486,206,1404,97.93,21837,8809,51.38,-66.3,0,normal
2024-03-15 10:04:33,273,0,cruise,40.415478,-3.702264,61.68,13242,14,1.43,3793,-1566,328058,-0.1249,-149,1.0456,-694,0.57,383,97.78,21781,18714,68.19,-61.2,0,normal
2024-03-15 10:04:34,274,0,cruise,40.415382,-3.702388,61.83,4.44,12,1.48,1517,16,329004,0.4027,501,0.9886,-1839,1.97,816,97.95,21788,11926,55.54,-64.5,0,normal
2024-03-15 10:04:35,275,0,cruise,40.415409,-3.702318,61.93,1754,14,1.31,-198,1049,328532,-0.2111,-0.1972,1.0316,-225,0.11,-205,97.92,21.75,9504,51.99,-69.6,0,normal
2024-03-15 10:04:36,276,0,cruise,40.415352,-3.702372,62.14,9993,14,1.32,1274,6,330544,-0.3405,-0.1854,0.9939,1.16,577,1642,98.08,21933,15874,63.2,-68.5,0,normal
2024-03-15 10:04:37,277,0,cruise,40.41527,-3.702471,61.76,8007,14,1.61,1999,0.69,331306,0.1744,0.1956,1016,-568,1047,653,98.01,21829,14187,60.6,-71.4,0,normal
2024-03-15 10:04:38,278,0,cruise,40.415262,-3.702521,61.41,4875,13,1.21,704,894,333688,2,0.0136,1.0279,-1014,-77,1.6,97.89,21785,11887,55.94,-70.1,0,normal
2024-03-15 10:04:39,279,0,cruise,40.4152,-3.702546,61.74,7.49,14,1.52,627,-386,334.92,-0.1113,0.1229,1.0278,778,1483,1848,97.89,21909,13859,60.16,-63.5,0,normal
2024-03-15 10:04:40,280,0,cruise,40.415188,-3.702668,61.71,5314,13,1.32,2103,3072,336142,-0.0391,0.2183,0.9883,-133,1713,83,98.01,21836,12207,56.49,-68.0,0,normal
2024-03-15 10:04:41,281,0,cruise,40.415179,-3.702674,61.68,7138,12,1.32,592,739,336721,0.1518,-0.4278,0.9829,-596,32,1223,97.94,21939,13.87,59.47,-71.3,0,normal
2024-03-15 10:04:42,282,0,cruise,40.415191,-3.702836,61.86,9309,12,1.28,-814,2059,338737,0.1637,-0.1015,0.9984,0.49,387,1933,97.77,21709,15.46,63.14,-72.9,0,normal
2024-03-15 10:04:43,283,0,cruise,40.415017,-3.702738,61.84,3999,12,1.39,774,2363,339958,-0.0539,0.1669,974,0.63,-85,0.95,98.12,21834,11181,55.1,-71.7,0,normal
2024-03-15 10:04:44,284,0,cruise,40.415154,-3.702915,61.31,6455,14,1.43,-98,1642,340172,0.0831,-0.4084,1.0048,-2289,-27,0.69,97.81,21719,12.82,57.48,-69.5,0,normal
2024-03-15 10:04:45,285,0,cruise,40.41492,-3.702817,61.25,9671,13,1.24,-3627,2574,341267,-0.2619,0.4566,0.9836,-1.14,1409,1762,98.16,21847,15953,63.24,-67.3,0,normal
2024-03-15 10:04:46,286,0,cruise,40.414983,-3.702965,61.08,9517,14,1.37,-353,2396,343.2,-0.1809,0.4464,1.0217,1079,-206,1709,97.95,21807,15608,62.91,-68.4,0,normal
2024-03-15 10:04:47,287,0,cruise,40.414994,-3.703016,61.55,5702,12,1.33,-661,911,345296,0.1649,-0.5475,0.9886,-833,904,2591,97.85,21771,12618,57.14,-65.1,0,normal
2024-03-15 10:04:48,288,0,cruise,40.414954,-3.703095,61.73,7712,13,1.5,-1.37,2171,346.45,0.2416,-0.1005,0.9652,-0.1,196,88,97.67,21764,14092,60.22,-70.0,0,normal
2024-03-15 10:04:49,289,0,cruise,40.414887,-3.703137,61.15,3939,14,1.36,-586,2062,347082,-0.2239,0.1947,1028,-693,655,1174,97.99,21.8,11154,54.95,-63.6,0,normal
2024-03-15 10:04:50,290,0,cruise,40.414887,-3.703111,61.12,9.94,14,1.31,-2723,2.38,347635,-0.2637,0.0293,1.0037,-264,-863,1376,97.75,21771,15847,63.07,-67.7,0,normal
2024-03-15 10:04:51,291,0,cruise,40.414855,-3.703366,61.59,6185,12,1.35,-1.77,1.7,349643,0.5385,0.2043,1.0006,-657,158,1578,97.94,21774,12683,58.15,-65.8,0,normal
2024-03-15 10:04:52,292,0,cruise,40.414833,-3.703239,61.25,2219,14,1.33,-4.31,4288,350174,-0.2523,0.2196,1.0219,368,1409,1184,98.1,21914,9659,51.88,-68.8,0,normal
2024-03-15 10:04:53,293,0,cruise,40.414891,-3.703347,61.18,10544,14,1.75,-2194,4916,351216,-0.4536,-0.3983,1.0174,1705,832,1055,97.79,21728,16485,65.3,-64.1,0,normal
2024-03-15 10:04:54,294,0,cruise,40.414853,-3.703486,60.64,9923,12,1.27,-588,4439,351728,0.5809,-0.0622,0.9848,-961,-518,1012,97.98,21.83,16044,63.77,-71.2,0,normal
2024-03-15 10:04:55,295,0,cruise,40.41479,-3.703541,61.16,813,13,1.21,-4372,4873,354051,0.1743,0.3925,991,-1.7,-531,1435,97.83,21.73,8541,50.04,-71.0,0,normal
2024-03-15 10:04:56,296,0,cruise,40.414861,-3.703466,60.62,5326,14,1.42,-4333,3393,354885,-0.6306,-0.0555,0.9777,53,-226,473,98.02,21785,12087,57.03,-70.1,0,normal
2024-03-15 10:04:57,297,0,cruise,40.414824,-3.703659,60.51,11394,12,1.39,-4512,3231,356448,0.1905,-79,0.9707,938,333,633,97.91,21.77,17132,65.85,-63.7,0,normal
2024-03-15 10:04:58,298,0,cruise,40.414845,-3.703732,60.7,997,14,1.68,-3739,3213,356.45,0.5148,-188,1.0116,-43,1869,1.38,97.91,21798,8988,51.56,-67.9,0,normal
2024-03-15 10:04:59,299,0,cruise,40.414832,-3.70368,60.58,5313,13,1.22,-5402,4753,358885,-0.4556,-0.1997,1.0078,-713,618,-178529,98.03,21837,12086,55.76,-70.0,0,normal
2024-03-15 10:05:00,300,0,cruise,40.414759,-3.703783,60.64,10301,13,1.35,-3847,4446,358784,-178,459,1.0152,865,-474,-178375,97.97,21761,16289,64.58,-67.9,0,normal
2024-03-15 10:05:01,301,0,cruise,40.414773,-3.70391,60.22,7127,12,1.23,-3557,4246,1744,0.2287,0.3548,1.0256,-158,87,1061,97.83,21769,13647,59.3,-66.7,0,normal
2024-03-15 10:05:02,302,0,cruise,40.414841,-3.703915,60.89,6481,12,1.32,-4148,5715,2661,0.1416,-0.2977,1.0155,-707,151,577,98.08,21789,13457,59.24,-70.4,0,normal
2024-03-15 10:05:03,303,0,cruise,40.414839,-3.70404,60.9,3713,14,1.52,-7123,4915,3461,0.2256,-206,1.0173,-97,-1532,879,97.75,21724,10921,54.61,-66.7,0,normal
2024-03-15 10:05:04,304,0,cruise,40.414815,-3.703996,59.92,939,12,1.59,-4012,3754,5081,-0.1748,0.3233,0.9584,0.93,-1362,0.37,97.93,21867,9008,51.89,-67.6,0,normal
2024-03-15 10:05:05,305,0,cruise,40.41483,-3.70406,60.75,8011,12,1.56,-4281,3987,5511,-0.3231,-0.0237,0.9939,-76,1814,659,97.82,21.72,14.63,60.4,-68.7,0,normal
2024-03-15 10:05:06,306,0,cruise,40.414899,-3.704148,60.16,6673,12,1.36,-4603,5418,7236,0.2292,-0.2323,1.0193,-281,0.95,1644,97.76,21.78,13705,60.48,-70.9,0,normal
2024-03-15 10:05:07,307,0,cruise,40.414819,-3.704218,60.61,2579,14,1.4,-5339,5838,8797,0.0194,0.1695,0.9766,-587,1287,1115,97.79,21868,9862,53.11,-64.6,0,normal
2024-03-15 10:05:08,308,0,cruise,40.41489,-3.704209,60.29,6659,12,1.36,-5703,5401,8053,-0.4469,0.0143,1.0018,108,57,413,97.9,21864,13053,58.57,-68.6,0,normal
2024-03-15 10:05:09,309,0,cruise,40.414869,-3.704358,60.27,11365,13,1.36,-4903,6791,10576,0.0729,0.1234,1.0104,1326,368,1403,97.94,21832,17356,65.52,-76.0,0,normal
2024-03-15 10:05:10,310,0,cruise,40.414887,-3.704477,60.15,6991,12,1.63,-4001,6566,11989,647,0.2719,1.0089,-1782,-1082,963,98.01,21824,13819,59.04,-66.2,0,normal
2024-03-15 10:05:11,311,0,cruise,40.414973,-3.704455,60.52,5576,14,1.25,-7613,5401,13102,-0.2068,-0.1919,1.0074,-835,-1532,1739,98.05,21869,12359,56.97,-66.0,0,normal
2024-03-15 10:05:12,312,0,cruise,40.414982,-3.704432,59.74,8383,14,1.32,-5329,4143,15129,-0.6297,-0.0434,1012,109,-421,1.58,97.93,21828,14095,60.69,-64.3,0,normal
2024-03-15 10:05:13,313,0,cruise,40.415005,-3.704645,60.24,10898,13,1.39,-6872,3685,15038,0.3056,-0.0198,1.0036,-0.32,518,637,97.86,21867,16746,65.14,-66.0,0,normal
2024-03-15 10:05:14,314,0,cruise,40.415056,-3.70467,60.34,2002,13,1.49,-7062,4613,16489,0.3449,-0.1249,0.9707,-862,1471,279,98.01,21817,9386,52.18,-66.7,0,normal
2024-03-15 10:05:15,315,0,cruise,40.415019,-3.704687,60.17,4.26,14,1.49,-8881,5.75,17042,-0.2894,0.0903,1.0101,-752,1771,1116,97.84,21843,11273,54.56,-68.7,0,normal
2024-03-15 10:05:16,316,0,cruise,40.415081,-3.704766,60.61,8.11,14,1.22,-7502,6813,19955,0.1206,48,1.0057,-278,371,1712,97.74,21758,14541,61.2,-68.6,0,normal
2024-03-15 10:05:17,317,0,cruise,40.415063,-3.704867,59.7,3527,14,1.25,-8472,5385,20277,0.5329,0.0779,971,718,-856,1.21,98.0,21916,10972,55.3,-65.2,0,normal
2024-03-15 10:05:18,318,0,cruise,40.415128,-3.704816,60.1,4826,14,1.68,-7939,6.11,21381,-0.2198,0.0566,1.0276,378,-624,2156,98.03,21821,12259,57.79,-67.6,0,normal
2024-03-15 10:05:19,319,0,cruise,40.415139,-3.704808,59.73,7.04,13,1.29,-8799,4661,22774,-704,0.1142,1.0107,335,-251,877,97.82,21707,13.59,58.83,-71.5,0,normal
2024-03-15 10:05:20,320,0,cruise,40.415187,-3.704966,60.08,12711,14,1.2,-8.11,5487,24318,-0.0735,-0.1005,0.9724,335,2352,1.37,98.1,21845,18056,67.32,-68.2,0,normal
2024-03-15 10:05:21,321,0,cruise,40.415249,-3.705071,59.66,8179,13,1.24,-8.14,5637,25374,0.4875,0.1408,0.9837,1004,-969,1188,97.96,21853,14775,61.43,-67.4,0,normal
2024-03-15 10:05:22,322,0,cruise,40.415218,-3.705152,59.49,8711,14,1.9,-7.61,2777,27724,0.4744,0.1326,0.9887,-1346,-627,777,97.94,21893,15078,61.83,-73.3,0,normal
2024-03-15 10:05:23,323,0,cruise,40.415404,-3.70511,59.95,4281,13,1.27,-9729,4277,27827,-0.0882,-0.6822,0.9887,-609,1732,-0.07,97.85,21744,11386,55.95,-64.9,0,normal
2024-03-15 10:05:24,324,0,cruise,40.415292,-3.705114,59.36,5.55,14,1.39,-9582,5567,28567,-0.4084,0.3583,1.0059,913,-34,779,98.0,21736,12464,58.87,-67.2,0,normal
2024-03-15 10:05:25,325,0,cruise,40.415325,-3.70519,59.04,12547,12,1.46,-7461,4812,29719,-0.1298,743,0.9805,221,-1026,777,97.75,21.8,18021,66.88,-71.3,0,normal
2024-03-15 10:05:26,326,0,cruise,40.415489,-3.705258,59.25,12095,14,1.41,-8891,3253,31004,0.0075,-0.4134,1.0226,756,-966,2204,97.86,21.82,17882,67.4,-68.1,0,normal
2024-03-15 10:05:27,327,0,cruise,40.415517,-3.70533,59.55,6984,13,1.29,-6674,1925,31649,0.2561,-294,1.0209,516,303,1078,97.83,21719,13987,60.32,-67.5,0,normal
2024-03-15 10:05:28,328,0,cruise,40.415556,-3.705396,59.73,5.03,14,1.31,-7714,3887,33.62,0.3004,0.0049,1.0124,-515,696,2265,97.77,21762,11916,56.61,-64.4,0,normal
2024-03-15 10:05:29,329,0,cruise,40.415606,-3.705339,59.29,3881,14,1.56,-7269,4073,35192,-0.4162,-0.1806,1.0009,456,-0.41,707,97.98,21805,11192,55.81,-64.4,0,normal
2024-03-15 10:05:30,330,0,cruise,40.415624,-3.705372,59.61,8.29,12,1.42,-6307,3145,35693,-0.0937,0.1724,1.0187,-1542,-171,1919,97.93,21851,14382,61.07,-63.9,0,normal
2024-03-15 10:05:31,331,0,cruise,40.415631,-3.705531,58.75,6.27,14,1.2,-8366,4051,36796,0.4939,266,0.9945,-799,-108,1902,97.98,21798,12818,57.0,-66.2,0,normal
2024-03-15 10:05:32,332,0,cruise,40.415732,-3.705409,58.98,6.59,12,1.25,-8669,4286,39158,-0.0636,0.1291,0.9855,224,-153,1464,97.87,21776,13428,58.45,-69.1,0,normal
2024-03-15 10:05:33,333,0,cruise,40.415748,-3.705493,58.98,8922,14,1.27,-6.91,4317,38887,-0.4637,0.0636,1.0238,1607,-2264,9,98.0,21827,15195,61.82,-69.9,0,normal
2024-03-15 10:05:34,334,0,cruise,40.415885,-3.705483,58.98,10018,12,1.29,-7313,1.15,39766,-0.2833,-0.3784,1.0064,-743,-1753,1757,97.9,21736,15812,63.09,-69.2,0,normal
2024-03-15 10:05:35,335,0,cruise,40.415885,-3.705649,58.99,8316,12,1.37,-8108,2047,41424,0.3239,-0.0705,0.9863,1229,307,1499,97.85,21889,14695,61.38,-67.5,0,normal
2024-03-15 10:05:36,336,0,cruise,40.415907,-3.705678,59.12,5727,12,1.29,-6164,2906,42.43,0.5118,0.4447,0.9916,-865,1267,1395,97.83,21838,12783,57.9,-67.4,0,normal
2024-03-15 10:05:37,337,0,cruise,40.41599,-3.705643,58.73,10151,14,1.55,-8.03,3627,44593,0.1453,0.0056,0.9853,-387,983,955,97.7,21.73,15875,62.66,-64.1,0,normal
2024-03-15 10:05:38,338,0,cruise,40.416084,-3.705634,58.86,6395,12,1.33,-7669,3383,45.42,-0.1548,-0.3527,1.0404,706,-981,0.93,98.01,21769,13586,58.65,-67.9,0,normal
2024-03-15 10:05:39,339,0,cruise,40.416094,-3.705592,58.76,3374,14,1.34,-7607,3.2,46.69,-0.3803,0.1241,1.0001,151,186,1417,98.0,21771,10814,53.41,-73.2,0,normal
2024-03-15 10:05:40,340,0,cruise,40.416141,-3.705667,58.44,10.67,13,1.31,-8.67,2175,48576,-0.1979,0.3211,1.0032,-642,-1135,1517,98.19,21887,16664,64.22,-70.8,0,normal
2024-03-15 10:05:41,341,0,cruise,40.416254,-3.705733,58.64,10894,14,1.27,-7362,2057,48854,0.4229,-0.2076,1.0144,1144,25,989,97.86,21746,16758,65.66,-70.2,0,normal
2024-03-15 10:05:42,342,0,cruise,40.416315,-3.705788,58.58,5097,14,1.46,-5679,1479,50788,0.2517,-0.2545,0.9757,614,498,0.79,97.83,21777,12.5,57.37,-70.2,0,normal
2024-03-15 10:05:43,343,0,cruise,40.416338,-3.70569,58.53,5038,13,1.25,-6712,2794,52356,-0.1016,0.2205,1.0219,-632,39,1215,97.72,21686,12289,56.64,-75.6,0,normal
2024-03-15 10:05:44,344,0,cruise,40.416402,-3.705813,58.54,8687,12,1.43,-7091,921,52572,0.0728,-0.0372,0.9878,-96,-728,1653,97.99,21848,14913,60.88,-62.6,0,normal
2024-03-15 10:05:45,345,0,cruise,40.416499,-3.705694,58.5,4251,14,1.35,-7198,2504,54369,-0.0566,-0.3229,1.0366,129,-531,0.42,97.97,21845,11662,55.48,-73.7,0,normal
2024-03-15 10:05:46,346,0,cruise,40.416477,-3.705798,58.31,2344,14,1.22,-6474,1672,55079,0.0413,0.2236,0.9937,1459,-1.04,2149,98.05,21822,9747,52.85,-69.0,0,normal
2024-03-15 10:05:47,347,0,cruise,40.416541,-3.705712,58.77,9237,14,1.2,-5831,1227,56862,-0.1639,0.4051,1.0208,1615,-412,1566,97.8,21795,15396,62.95,-65.2,0,normal
2024-03-15 10:05:48,348,0,cruise,40.416638,-3.705762,57.99,11027,12,1.24,-5852,421,56814,-0.1758,0.0308,0.9501,-445,128,242,97.96,21855,17264,65.95,-65.4,0,normal
2024-03-15 10:05:49,349,0,cruise,40.416727,-3.705806,58.08,10.07,12,1.49,-6826,-474,57977,0.1557,0.0396,0.9765,215,-707,936,97.84,21801,16204,64.03,-71.6,0,normal
2024-03-15 10:05:50,350,0,cruise,40.416816,-3.705826,59.08,11595,13,1.3,-5875,36,59804,0.25,-0.0713,0.9941,681,265,1916,98.03,21866,17426,65.48,-63.6,0,normal
2024-03-15 10:05:51,351,0,cruise,40.416937,-3.705816,57.89,8698,14,1.53,-5.52,155,60756,0.0479,-0.4382,0.9594,16,-1434,484,97.94,21754,15314,62.18,-64.1,0,normal
2024-03-15 10:05:52,352,0,cruise,40.416968,-3.705775,57.75,2755,13,1.34,-7128,-2083,62142,-0.2043,-0.2311,1012,407,-142,1033,97.73,21792,10.35,53.91,-67.7,0,normal
2024-03-15 10:05:53,353,0,cruise,40.41698,-3.705787,58.33,4894,12,1.21,-5535,-112,63.49,-0.0482,0.1119,1.0063,-1.04,481,852,97.88,21809,11771,55.85,-67.1,0,normal
2024-03-15 10:05:54,354,0,cruise,40.41705,-3.705814,57.44,4449,12,1.57,-8142,0.81,65.16,0.2102,0.1367,0.9802,74,931,1156,97.7,21825,11951,57.32,-70.0,0,normal
2024-03-15 10:05:55,355,0,cruise,40.417063,-3.705784,57.94,7406,13,1.75,-4774,253,65796,-0.1572,0.2618,0.9997,1386,-898,1547,97.77,21781,14029,60.85,-66.5,0,normal
2024-03-15 10:05:56,356,0,cruise,40.417174,-3.705761,58.61,9506,12,1.22,-4.36,-1009,66788,-0.0069,34,1.0161,1.71,-0.0,1401,97.78,21776,15.77,63.16,-66.5,0,normal
2024-03-15 10:05:57,357,0,cruise,40.417222,-3.705858,57.46,7879,14,1.25,-4048,-665,68224,0.3643,-0.1939,0.9579,-106,-344,1723,97.82,21762,14.44,60.86,-68.8,0,normal
2024-03-15 10:05:58,358,0,cruise,40.417314,-3.705714,57.28,6454,12,1.45,-5207,-1465,69215,-0.1976,-0.0492,0.9745,-346,-0.05,878,97.86,21871,13462,60.34,-65.3,0,normal
2024-03-15 10:05:59,359,0,cruise,40.417317,-3.70577,57.38,7637,12,2.37,-4144,-956,70333,-0.2051,0.4249,0.9933,974,1418,1038,97.9,21687,14512,61.55,-66.3,0,normal
2024-03-15 10:06:00,360,0,cruise,40.417444,-3.70576,58.06,13.25,13,1.62,-2584,241,71193,84,-0.1404,1.0005,1.29,283,838,97.9,21829,18527,68.38,-57.6,0,normal
2024-03-15 10:06:01,361,0,cruise,40.417554,-3.705766,58.08,4785,12,1.22,-2369,-523,73235,0.1174,-0.5067,0.9988,-0.19,-617,1413,97.89,21.8,12045,56.77,-70.0,0,normal
2024-03-15 10:06:02,362,0,cruise,40.417531,-3.705749,57.54,4346,12,1.39,-3868,-1.16,74116,0.1995,0.1558,1.0178,-132,-1316,1051,97.92,21798,11537,55.84,-63.3,0,normal
2024-03-15 10:06:03,363,0,cruise,40.417614,-3.705703,57.86,9949,13,1.42,-3.43,-2361,76083,0.3622,0.0551,1.0095,709,-338,0.9,97.76,21761,15588,63.05,-69.9,0,normal
2024-03-15 10:06:04,364,0,cruise,40.417686,-3.705645,58.03,10139,14,1.4,-2024,-1302,76076,-84,-0.1645,1.0139,-589,-1286,708,97.89,21.8,15872,63.03,-65.7,0,normal
2024-03-15 10:06:05,365,0,cruise,40.417688,-3.705484,58.1,5582,13,1.37,-4914,-3919,77729,-0.5378,0.1782,0.9722,-559,-1049,1858,98.03,21852,12634,57.54,-74.9,0,normal
